id,name,latitude,longitude
937,Ottignies-Relais,50.67913489314789,4.565488223292253
265,Châtelet-Carwash,50.41817472864429,4.533684811110712
1375,Racc.Petite-Folie,50.60521551802041,5.549682651103612
1108,Stockem-Raccordements,49.69105337140581,5.767483908888061
1748,Verb.Oiltanking 1,51.30668400152134,4.293915995341998
1762,Verb.Vesta Terminal Antwerp,51.316613001517126,4.287575995345113
213,Brugge-Bundels U/V,51.1905170014511,3.222696995695276
225,Brussel-Klein-Eiland-Bundel F,50.82812010974146,4.321977787924144
1823,Antwerpen-W.H.-B.Kalishoek,51.2847155804189,4.266391534901935
1023,Ruisbroek-Bundel,50.79977243101962,4.302387081967852
180,Antwerpen-Noord-Bundel A2,51.29831459982247,4.375399170266941
1824,Antwerpen-W.H.-B.Krommenhoek,51.291269529808076,4.246016983394258
1012,Ronet-C.L.I.,50.454166724471605,4.831459017628888
1498,Gent-Sint-Pieters-Bundel B,51.04089300155157,3.685176995524686
675,Luchtbal-Wijkbundel,51.27099800154873,4.431169995291412
2017,Gent-Zeehaven-Groot Dok,51.082359753411055,3.733661584934324
56,Antwerpen-Noord-Bundel C2,51.29347186317338,4.371250112152559
194,Merelbeke-Centraal,51.02283000156589,3.760409995497392
524,Hasselt-Afwisseling,50.936263455001104,5.303919561361893
823,Merelbeke-C.H.W.,51.016043796798364,3.773463842633946
1501,Antwerpen-Noord-Inrit T.W.,51.290535528059834,4.391907370797812
295,Cuesmes-A.C.,50.44335309571135,3.933450966367221
1908,Antwerpen-Nd-Bl.9-Rooster G/E,51.2997080037674,4.366277995753054
1909,Antwerpen-Nd-Bl.9-Rooster D/E,51.29557300377058,4.38512899574802
1833,Verb.Liefkenshoek Logistic Hub,51.28755547654501,4.285676802072544
525,Hasselt-T.W.,50.93692497381621,5.306750842282782
1571,Y.Machelen,50.90785130424338,4.42129701052312
2048,Melle-T.W.,51.013635472641845,3.77915158581341
1457,Verb.ITC Rubis,51.29181500152026,4.234264995361079
816,Mechelen-C.W.,51.017121981936995,4.488365222267253
1690,Kortrijk-T.O.P.,50.81790861737226,3.249461734896629
2088,Racc.Aperam,50.41311733145626,4.531066437419218
48,Antwerpen-Noord-Bundel B3,51.292624001536815,4.391642995307065
716,Leuven-Bundel P,50.877000001722195,4.718680995154479
2097,Leuven-Bundel F,50.889965602575195,4.713252196534129
125,Baulers,50.61231055874444,4.350260827251606
1926,Evergem-Bundel Zandeken,51.15592800374791,3.748242995887943
47,Antwerpen-Noord-Bundel B2,51.296742411052506,4.372743730563758
718,Leuven-Bundel M,50.89048741099339,4.715212056034138
42,Antwerpen-Kiel,51.195105758708074,4.366867799655071
817,Schaarbeek-Bundel M,50.88072700168401,4.385454995269895
153,Bierges-Walibi,50.707651778207,4.595155144797867
542,Heizijde,50.98889804389831,4.157254201988882
975,Profondsart,50.69384598089478,4.549496108321164
418,Forrières,50.13309074777786,5.276553146611916
447,Gentbrugge,51.03878033373764,3.756083021687756
132,Begijnendijk,51.02202332433806,4.800439914572373
190,Boortmeerbeek,50.98190383220303,4.57399271193005
812,Meiser,50.854757009079435,4.394274208667772
1348,Beringen,51.0506130017172,5.235889994991115
142,Berlaar,51.113708437795054,4.638257975914391
1152,Torhout,51.064712250785384,3.105750907108637
472,Godinne,50.3488506246698,4.869974117956068
335,Drongen,51.047503146402754,3.653586159319735
378,Essene-Lombeek,50.882398692140114,4.115166601057234
331,Dolhain-Gileppe,50.62692515023561,5.93868646551414
539,Heide,51.365383737807456,4.460868704766986
191,Bordet,50.8777742574513,4.410014404476271
324,Diepenbeek,50.9117654559103,5.41632753993968
401,Flémalle-Grande,50.6052596351082,5.481089013737427
64,Antwerpen-Zuid,51.19721428415948,4.391779006927757
143,Beverlo,51.08864300170322,5.234550994995216
647,Kortemark,51.02513426910576,3.043944762312061
67,Appelterre,50.81314095122116,3.97235371963076
908,Nimy,50.47176943541776,3.95653982987247
474,Gontrode,50.97984015695545,3.801555019043831
1202,Voroux,50.6606950187532,5.431053889364091
75,Assesse,50.368675498227645,5.021448905914102
10,Aarsele,50.98449587775488,3.41837146644795
1841,Aubange,49.5633161795773,5.800053519656957
619,Jemeppe-sur-Meuse,50.61841627390551,5.497799707765852
423,Franchimont,50.52521135946914,5.822584899875552
2136,Lijn 50A-Seinen 203,50.89596150219181,4.074478603072891
1021,Ruisbroek,50.79177235834205,4.295521156543186
958,Péruwelz,50.51361346641127,3.59206286807832
347,Eichem,50.82390795063365,3.993605086038247
720,Leval,50.43066476604268,4.211414215952779
1073,Sinaai,51.143500701126385,4.068856389093756
920,Obourg,50.46980723102854,4.006727859438542
782,Maffle,50.61404860437613,3.800494581194257
807,Maubray,50.5473596412106,3.496016879443089
1184,Vichte,50.833503060446695,3.392847172084267
12,Acren,50.73286590540343,3.847018189191549
1087,Sint-Martens-Bodegem,50.8671660562188,4.2049393203133
520,Harelbeke,50.85629094542211,3.314655510959286
1056,Scheldewindeke,50.93780300159805,3.777613995483383
1278,Zwijndrecht,51.213640244311954,4.324671903684774
1339,Racc.Bierset-Zone Fret,50.65999365161529,5.485113835580062
282,Charleroi-Dry Port,50.39929480091273,4.494973421707625
714,Leupegem-Seinen SL9-TL9,50.8291416053266,3.60912929432414
518,Hansbeke,51.07270818510425,3.537446874067181
167,Blanmont,50.6195230216506,4.636686921998361
896,Naninne,50.41937412405278,4.93031043044587
800,Machelen,50.90596642069302,4.421043048845224
1486,Verb.B.P. Chembel,51.12078718788457,4.997822878502191
725,Liedekerke,50.882547620740944,4.095286581223728
501,Hainin,50.42802710763502,3.766794741414823
367,Erpe-Mere,50.928593460397884,3.962516719829164
1174,Veltem,50.90055001720875,4.633517445095211
1139,Thuin,50.34256310728942,4.288964234932776
227,Brussel-Schuman,50.842848617923735,4.380023585783107
1189,Villers-la-Ville,50.57809065042433,4.53350004126608
860,Moortsele,50.95295090340576,3.780982223065362
970,Pont-à-Celles,50.5138331542941,4.354095184574096
601,Idegem,50.801685791171266,3.921425440783262
237,Brussel-Klein-Eiland-Carwash,50.82299825586504,4.318597102209035
1075,Schaarbeek-P.C.I.,50.90116046309361,4.4194393453511
453,Genk-Zuid-R.O.-L230,50.93921718221553,5.499301634394691
1301,Racc.Andenne-Carmeuse,50.49694966236013,5.078447463003547
1337,Racc.Eurogal,50.58734064423013,5.43553117509037
60,Kruisschansbrug,51.27465900153686,4.332572995325691
1349,Racc.Jéhonville-M.D.N.,49.86925587201846,5.228276426027763
1388,Verb.Delta-MIVB,50.81816882340912,4.40370653723923
1384,Racc.Ségal,50.58719236223732,5.434639146818087
1509,Beverst,50.88108339818732,5.506538290985316
1409,Ans-Plans,50.65539856916107,5.529727347805856
1416,Verb.Kanaaldok B1-Bayer,51.28598000153242,4.328609995328123
1426,Verb.Hessenatie-Autotransport,50.77253627107172,5.485016515720411
1217,Lijn 4-Stopmerkborden 249x(NL),51.47797385903045,4.730629383509361
1991,Lijn 208-Kruising lijn 211,51.26697190269105,4.278598549570677
2049,Verb.ACS2,51.28002929253426,4.335792434673704
2056,Verb.Mexiconatie,51.23786583920869,4.33239014906827
1450,Verb.De Bonte,51.10422338509232,5.06881724294595
529,Hasselt-Aflos L.35/1,50.93754709381578,5.304095840101176
1041,Schaarbeek-NOS,50.882458051539146,4.390199063033686
1818,Lijn 10-Seinen KL/LL,51.31055687541899,4.317901417616707
1902,Lijn 50C-Seinen BY135/AY135,50.84796619541682,4.188160568154082
2012,Lijn 207-Seinen AWL207,51.16798693425248,4.826727768490274
2133,Lijn 50A-Seinen 342,50.95531627986929,3.897636042385818
72,Grens Brussel-Vlaanderen L124,50.77363446082327,4.33953454089308
294,Cuesmes,50.43460730230395,3.934478348034874
408,Grens Vlaanderen-Wallonië 3 L2,50.698940306078505,5.170571078257217
448,Grens Brussel-Vlaanderen L96A,50.801553666114884,4.303687046271945
833,Mirwart,50.04576180255698,5.266878874726828
1674,Courbe de Soignies-PN 63,50.58750986096153,4.121517696035752
1771,Grens Vlaanderen-Wallonië L24,50.73421698589772,5.909748037490706
1773,Grens Wallonië-Vlaanderen 24/1,50.75016853707988,5.696804074727164
1776,Grens Brussel-Vlaanderen L26,50.777404739544714,4.3286581343741
1777,Grens Brussel-Vlaanderen L26/1,50.90194851466299,4.42315147715651
1778,Grens Brussel-Vlaanderen L27,50.90387663020533,4.419373509122087
1780,Grens Vlaanderen-Wallonië L36,50.71883087551434,5.189376246331777
1787,Grens Vlaanderen-Wallonië L75,50.76586882316956,3.220715476062326
1791,Grens Wallonië-Vlaanderen L94,50.6987620318348,4.042008345704883
1792,Grens Vlaanderen-Wallonië2 L94,50.69549388381905,4.015372895050329
1797,Grens Wallonië-Vlaanderen L123,50.698793078235994,4.042153772426511
1802,Grens Brussel-Vlaanderen L96N,50.80181076556288,4.303541663718613
1803,Grens Vlaanderen-Wallonië L1,50.70668686167541,4.21211487384702
147,Berzée,50.28562307355465,4.40599828396412
457,Genval,50.726467561824926,4.513841930930245
1843,Evergem,51.10754309685516,3.701533161896776
1093,Solre-sur-Sambre,50.312755390346254,4.158287829673784
1350,Zonhoven,50.98970000175233,5.348769994945753
1091,Sleidinge,51.12643393786671,3.667545364505891
171,Bleret,50.685313301749794,5.286061064312441
371,Erquelinnes-Dorp,50.30970783724065,4.130141061496101
16,Aiseau,50.42954055375694,4.584376485514419
876,Monsin,50.65762691522865,5.642755163085574
704,Leignon,50.267702734121116,5.107729107898765
121,Opzullik,50.663205398063035,3.937245875917736
827,Méry,50.54825330128011,5.587073124315626
316,De Hoek,50.73924115834706,4.370342368877128
106,Balegem-Zuid,50.9008046268035,3.805776390974759
672,Terhulpen,50.73811044447185,4.497448352714626
422,Frameries,50.40552689156566,3.906385856821704
250,Carnières,50.44790381004631,4.264406625278332
635,Kessel,51.151056001612034,4.618457995215415
826,Mérode,50.839930553958354,4.399590549118572
257,Chapois,50.26226836222129,5.124119622764102
114,Barvaux,50.349504130012015,5.502270043642818
1491,Gent-Rodenhuizedok,51.13687113982743,3.792051153833973
391,Familleureux,50.519411502375476,4.211654529557394
572,Hoeilaart,50.76018324853293,4.467428762947364
736,Ligny,50.51135366053688,4.566056594307918
1224,Weerde,50.977243209834526,4.471087335301695
325,Diegem,50.89062008445345,4.441952580833079
707,Lens,50.55912879254978,3.903285755628561
304,Aubange-Zoning,49.56481557298573,5.777960212914783
591,Huizingen,50.75164132555423,4.265609116647624
685,Landskouter,50.970632711493394,3.791317792734344
352,Ekeren,51.27723574066446,4.432825280541328
950,Montzen-Est,50.719433089938015,5.957034310717216
866,Mortsel-Oude God,51.171808099384776,4.455388660748518
446,Genly,50.39072345653245,3.911927656249831
546,Hemiksem,51.13637533241372,4.338483199630347
217,Brussel-Kapellekerk,50.841176483587425,4.347842850133666
1060,Schoonaarde,51.003138571181125,4.011262908092702
1842,Messancy,49.594027856871506,5.81831958125903
610,Jambes-Oost,50.45480124064923,4.880327093433281
118,Bas-Oha,50.52248172084146,5.191103060084089
683,Landelies,50.37744147997038,4.35082634155706
102,Baasrode-Zuid,51.01938772431604,4.15401461327405
905,Niel,51.11082441141632,4.340335935016783
919,Obaix-Buzet,50.53576499907677,4.363632083286799
33,Kortenberg-Goederen,50.893766016593474,4.552069735832903
313,Dave-Saint-Martin,50.429043271156736,4.88423456717759
941,Oud-Heverlee,50.835700608309,4.653595847154261
337,Duinbergen,51.338271911609404,3.26293506332294
819,Melsele,51.21082656268172,4.288506223071698
385,Evergem-Sluis,51.09158686422138,3.680187543564905
87,Antwerpen-D.S.-Berendrecht,51.3169046417213,4.32688859914092
258,Charleroi-West,50.41220705285437,4.437641137969656
1577,Moustier-Garage,50.452251562650595,4.676398912033878
752,Neufchâteau,49.85424516060266,5.452480885543958
407,Feluy-Zoning-Faisceau B,50.5506304193871,4.218739806856878
924,Olen,51.17402976913898,4.902499251852356
1134,Testelt,51.009863921942355,4.945833786595188
84,Aywaille,50.472815025836724,5.672503602495376
291,Couvin,50.057799568191655,4.492998249775371
162,Antwerpen-W.H.-B.Kallo,51.24290895806424,4.27397482533313
93,Deinze-Wijksporen,50.9790461798649,3.540645659081197
31,Ans,50.66119033371017,5.509696653841267
767,Lustin,50.36974157323638,4.87748847850772
1754,Antwerpen-D.S.-Belgische Basis,51.262054942963665,4.402622180139939
462,Ghlin,50.487523509938555,3.90639438934079
1131,Ternat,50.874645887542954,4.165480312447825
1128,Temse,51.12598622728998,4.221148549457797
895,Namen,50.46920536707373,4.862754782172303
1263,Zeebrugge-Vorming,51.315516978848294,3.189134716013176
13,De Panne,51.07726613110537,2.602401090227277
95,Antwerpen-D.S.-Petrol,51.26232512983488,4.343525750853238
455,Gent-Sint-Pieters,51.03551971701421,3.710101315832923
445,Genk-Zuid-R.O.-L231,50.937322869316766,5.473772723764118
1671,Antwerpen-D.S.-Kongo,51.264870398220005,4.366778150790873
360,Edingen,50.69722134520999,4.047260476616265
90,Monceau-Gril F,50.43203571905784,4.392843402140084
726,Luik-Guillemins,50.62555824033023,5.565379651677738
1363,Schaarbeek-Doodspoor 814,50.90058554770989,4.410845483805607
301,Chertal,50.68538340191303,5.657427903971446
1678,Y.Ordam,51.288838637650684,4.353479677220085
165,Blandain-Frontière,50.617435591260296,3.263677203492611
983,Quévy-Frontière,50.32884238624966,3.908374909741245
1578,Y.Nazareth,51.1435765706439,4.58584093257455
1593,Y.Oost Berchem,51.201490310151954,4.430448329018664
1597,Y.Oost Driehoek Ledeberg,51.025848985416644,3.753779864936376
1295,Racc.Yves-Gomezée-Les Petons,50.232028078482955,4.521784129482494
505,Y.Noord Halle,50.74665827736566,4.253649206608792
20,Y.Tivoli,50.87102076430409,4.719555521863682
387,Y.Alaska,51.254554982707745,4.38951060018072
609,Jabbeke,51.2001421532298,3.093302532067931
939,Oudenaarde,50.85060234685959,3.600671251569412
692,La Roche(Brabant),50.61023315895161,4.539569635859897
820,Menen,50.79946001891374,3.113887199330697
459,Spa-Géronstère,50.489275846379776,5.866227582391661
1419,Kapellen-Wijkspoor,51.317231535723785,4.434792500728763
21,Antwerpen-Noord-Uitrit C1,51.29088600156163,4.381415885046145
1745,Buzet,50.555223582924654,4.357469748937786
164,Ninove-Wijkspoor,50.840910449255475,4.03458402182942
1255,Yvoir,50.32085000245575,4.878760881433763
428,Flémalle-Annexe,50.59744524486694,5.473536463897578
1543,Y.Haren-Noord,50.90340309029347,4.418601960443254
867,Montzen-Gril Q,50.717842210729756,5.962765353549051
1565,Y.Liersesteenweg,51.17130092933905,4.470119526578679
1569,Y.Longchamps,50.7471716335547,5.707703298203469
1575,Y.Meulewijk,50.987381735886224,3.817932637585714
270,Zedelgem-Rooster E/G,51.12855527982551,3.165592693485212
878,Y.Melle-West,51.00545867544598,3.792232013583419
883,Muizen-Rooster T,51.00694255598731,4.516505520543281
1347,Y.Abeelstraat,51.0056896059787,4.47583322893684
1357,Y.Brucargo,50.90946643678171,4.461056595816707
1362,Schaarbeek-Sas K/C,50.89954168555581,4.410441644185734
112,Y.Bethune,50.82110018173296,3.252966063178141
115,Bascoup,50.46230581792374,4.277996688665829
119,Bitsingen,50.756495311498036,5.611963891649262
141,Beringen-Mijn,51.076814001707206,5.231866994995026
1503,Y.Aubry,51.17331924596994,4.47771427777395
1508,Y.Berneau,50.74205981954781,5.718067274832742
290,Stockem-Nord,49.690916174121305,5.765610973775455
305,Brussel-Zuid-Rooster NZV,50.83876568518377,4.341126060166059
312,Y.Mont-Saint-Martin,49.55363575317756,5.822139902691497
465,Franière-Gril C/D,50.437689062280676,4.738712102046927
928,Oostakker,51.07528779073964,3.763090598580252
909,Aarschot-Rooster Noord,51.00584564824849,4.828903844809811
314,De Bist,51.14445537979285,4.592471478534569
1827,Y.Farnese-West,51.26706514086448,4.278125321598168
1922,Genk-Goed.-Uitrit Hulpstatie,50.977308003985634,5.470927995444648
1970,Y.Geslecht-Zuid,51.28490757688493,4.282990529951944
1549,Y.Houraing,50.70442489681182,3.835454971864786
1555,Y.Kaatsbeek,50.93023157124586,5.49313993103952
1558,Y.Krijgsbaan,51.18034583866595,4.466611957598662
1561,Y.La Sambre,50.40862836585,4.40359148015281
842,Momalle,50.6699148465472,5.367599886549959
648,Kortenberg,50.89300415046401,4.543312926825426
664,Labuissière,50.316274429666755,4.186533133296718
287,Courrière,50.38773555674349,4.995789831137567
432,Galmaarden,50.74402497456338,3.964956486506644
916,Nossegem,50.88344233385105,4.506060556822931
58,Antwerpen-Noorderdokken,51.261690357038965,4.427946720982024
1150,Tollembeek,50.73542702057838,3.992881040231503
38,Antwerpen-Dam,51.23174780746617,4.426375562246658
1839,Noorderkempen,51.35805994162148,4.634029490976993
1675,Y.Lillobrug,51.30409084748173,4.311445589694537
181,Antwerpen-Noord-Toegang A1,51.29148661938982,4.399788056399475
571,Hoegaarden,50.765546698524275,4.938202730926867
859,Montzen-Frontière,50.75237081083094,6.018173080005798
1588,Y.Noord Driehoek Ledeberg,51.0310697847662,3.754409648447953
1297,Lanaken-Grens,50.876610001831445,5.67288999482089
1616,Y.Schijn,51.28773372545384,4.413532499033318
1257,Y.Frederik,51.353621710206184,4.279107184703806
25,Andenne,50.496828765415096,5.095965480077196
1181,Veurne,51.07391661820733,2.669750487403637
1368,Hamont,51.24610100168093,5.541909994902332
83,Aubange-Frontière-Luxembourg,49.55165626366564,5.825015825356029
786,Marbehan,49.72742014932923,5.53975533337961
589,Houyet,50.19034554043201,5.005903558228376
1090,Sint-Truiden,50.81768876585601,5.176520546000151
449,Gent-Dampoort,51.056728987048956,3.740515250330524
431,Gantaufet-Zoning,49.661259623355896,5.608221352297815
1062,Sclaigneaux,50.49212088315084,5.026460713868468
34,Anseremme,50.238013493316494,4.905565624296302
1035,Schaarbeek-Bundel V,50.88512215448079,4.401352914778466
768,Luttre,50.50601206060288,4.384250449864734
1052,Y.Inrit Groep R,50.90031066160642,4.409729290022818
1602,Y.Prinsenhoek,50.997397834272064,4.520261196113898
1620,Y.Sint-Katherina-Lombeek,50.87579308485611,4.125672905380013
1621,Y.Sint-Katelijne-Waver,51.0687868504033,4.495848142913284
1623,Y.Soignies,50.58420338482292,4.106341123670671
242,Sint-Martens-Voeren,50.7469042687301,5.816499303813718
52,Antwerpen-Noord-Blok M9-N9,51.29887398851725,4.364204991130035
53,Antwerpen-Noord-Blok L9,51.294747995152086,4.384829347010283
846,Y.Boudewijnkanaal,51.27427456915654,3.211136346040339
1530,Y.Etterbeek,50.817061163608805,4.403018194729282
1539,Y.Garde-Dieu,50.61923888076139,5.586082857305401
1540,Y.Leman,50.59952148910764,5.466976327249911
1541,Schaarbeek-Rooster N,50.88210358116009,4.39178569362497
1542,Y.Glons,50.75479120326342,5.528501510849839
1547,Y.Holland,51.228281133071484,4.433743354247206
43,Melsele-Rooster O/Q,51.209908529653774,4.276733531427586
1323,Racc.Flémalle-Cockerill 3-4,50.61306258271737,5.492437589718984
1343,Liège-Plans,50.62818626132375,5.563380722942467
1563,Y.Lens,50.539221727262344,3.913725839469875
1564,Y.Pelikaan,51.28476922991983,3.230832077753078
1286,Zonhoven-Rooster P/U,50.95853750253366,5.338176851558512
1976,Y.Wilmarsdonkbrug,51.26328056234856,4.383234487993154
1398,Y.Ter Doest,51.28454095006955,3.196967043934103
1428,Y.Hazop,51.25217701397646,4.213616258773913
1200,Vonêche,50.065016089097476,4.967196337293416
163,Merelbeke-Rooster S,51.017556178631686,3.769073560785015
1581,Y.Nieuwdak,50.96502649202759,5.475543238322813
1585,Y.Noorderlaan,51.267974063016446,4.383114531193276
1590,Y.Oorderen,51.29178681266868,4.36141190145973
1594,Y.Muisbroek,51.29015007117102,4.377213853544278
1595,Y.Maubray,50.55335552140771,3.48379411316409
1598,Y.Otterbeek,51.05423501791443,4.494132764561805
2006,Châtelet-Gril Ouest,50.4074707750296,4.516345007497652
2007,Châtelet-Gril Est,50.41490172180657,4.526329948428573
765,Lier-Rooster C/G,51.1357706815875,4.55874876172302
766,Luchtbal-Rooster S,51.2645777957838,4.42905873736288
773,Verb.Sibelco,51.241372576974925,5.243277276308452
2021,Kinkempois-Gril F,50.60604051198097,5.572653811164143
2025,Zeebrugge-Rooster G,51.311559612344425,3.189961042715953
2026,Zeebrugge-Rooster H,51.32114496640201,3.187651099959672
2044,Ougrée-Gril F/K,50.606966575412564,5.528133668726901
2052,Landegem-Rooster G/H/L,51.068463747486426,3.557248115171496
2054,Lessines-Carrières,50.69575581170318,3.8542900096395
1452,Verb.Ashland,51.29170831852463,4.270210431622886
1463,Y.Polderdijk,51.24913815200731,4.343096316886323
1468,Verb.Total Olefins Antwerp,51.257833001542835,4.332410995324157
1521,Y.Kuregem,50.832002700517165,4.322782532324316
1523,Y.Diegem,50.89184951138523,4.434554875479245
1525,Y.Drabstraat,51.17946141386162,4.465045895022865
1636,Y.Weerde,50.975532322111015,4.470448498923679
1645,Y.Zuid Groenenhoek,51.19442968755265,4.438954455789036
1646,Y.Zwijndrecht-Fort,51.21257115941909,4.31092004698615
1647,Y.Albertkanaal,51.17232160453408,4.805158243767036
1653,Y.Renory,50.60486243463854,5.557773789384559
536,Hayettes,50.447621070683944,4.219493770123808
547,Inrit Verb.Hemiksem-Verbeke,51.1539075959166,4.34361317988718
1025,Vorst-Zuid-Sporen 920/926,50.811015107851695,4.310837271112412
1040,Saint-Vincent-Bellefontaine,49.664451339519424,5.438476713955991
1696,Lijn 10-Rooster G/H,51.2431915237878,4.236447980124069
1702,Y.Saint-Lambert,49.65563869620065,5.55079648194605
1704,Y.Steenland,51.24704240123935,4.254244654851988
1705,Y.Den Beer,51.26102451570256,4.271037586905093
1475,Y.Verrebroek,51.270232659070835,4.199640569065686
1480,Verb.Van Moer,51.24910813890757,4.246782468305648
1497,Y.Aguesses,50.61449200191902,5.591318994824141
1706,Y.Farnese-Oost,51.26700895345476,4.284809107755413
1715,Salzinnes-A.C.,50.46604500188657,4.839568995072435
1729,Y.Wilsele,50.901816991442786,4.704375755654313
1743,Aalst-Rooster Oost,50.93391537042328,4.051181877231252
2081,Schaarbeek-Basis TucRail,50.885221213232256,4.401052415476972
1826,Y.Krommenhoek,51.28760646734935,4.241959901966691
2070,Criquelion-Faisceau,50.459471621484056,3.837399322014329
2063,Kieldrechtsluis,51.278910586068314,4.247625537514588
361,Engis,50.58266006063994,5.402218863560586
1906,Zeebrugge-Bundel Dart-Line,51.345983800415524,3.173135900606432
762,Louvain-la-Neuve,50.669942365664625,4.616284940483432
551,Hennuyères-Garage,50.6479509231809,4.173327027471045
1246,Rivage-Marchandises,50.49075374158829,5.587160273988107
801,Marloie,50.20321569506066,5.314305549244098
1267,Zelzate,51.20270458031781,3.799473632333925
1084,Sint-Mariaburg,51.29267549635015,4.43456517971565
346,Eeklo,51.18061569885919,3.575419009227249
158,Binche,50.408563854714735,4.172759557130057
2055,Lessines-Carrières-Cul de sac,50.69017183593625,3.864636334562565
1034,Saint-Ghislain,50.44273476444009,3.820015769849533
995,Rhisnes,50.4993004915618,4.801803854068583
466,Schaarbeek-Bundel P,50.883564060910594,4.397792390158366
308,Jemeppe-sur-Sambre-Marchandise,50.44797745287747,4.657785895311827
554,Herentals,51.18107296652878,4.828554945607912
1928,Gent-Kluizendok-Zuid,51.15815046173819,3.778546649738438
273,Klabbeek,50.69473774961513,4.213626572702951
642,Knokke,51.339924821451284,3.285227675190857
292,Croix-Rouge,49.6281898782881,5.565735894218752
61,Antwerpen-Oost,51.20666767200753,4.43474462113128
2095,Y.Bruulstraat,50.9018317317943,4.413004634020071
458,Geraardsbergen,50.770949248522925,3.872417489184951
759,Lot,50.765128381018265,4.272571084560079
1753,Schaarbeek-Groep G,50.89615847159516,4.409001662909547
375,Esneux,50.52961833787157,5.572858884799018
1670,Genk,50.967071021620654,5.498086693151217
730,Luik-Sint-Lambertus,50.64694935205776,5.57261263700804
749,Lokeren-Oost,51.10977280180321,3.991494840923161
818,Melreux-Hotton,50.283600345297494,5.440352546498348
74,Asse,50.90670257176685,4.208230395126666
409,Florenville,49.70723922741239,5.331285482846186
700,Le Campinaire,50.423793968306505,4.542815083314184
933,Opwijk,50.97461822357513,4.187540293365119
868,Moeskroen,50.73833321248668,3.225382514546805
1082,Sint-Joris-Weert,50.80129671879586,4.651860787104162
628,Jurbeke,50.530554529567226,3.91061322221787
645,Kloosterheide,51.13239724432421,4.606001983384839
9,Aarschot,50.98449635540834,4.823698347886938
855,Mont-Saint-Guibert,50.63829834924627,4.61270934638381
911,Nijvel,50.6004932591792,4.335288481441468
848,Bergen,50.454436770348934,3.942380575452241
86,Antwerpen-D.S.-Lillo,51.292651008527,4.34410368816223
22,Amay,50.54592191603607,5.320609487870715
1739,Y.Luchtbal,51.2536866100294,4.425486339092145
81,Y.Autelbas,49.64286022198806,5.842544281325094
421,Fraipont,50.56512345525054,5.723431941853723
183,Bosvoorde,50.79455788670699,4.408269528287142
1031,Saint-Denis-Bovesse,50.521297001857974,4.767791995102788
931,Oostkamp,51.15421490987769,3.257626153621203
971,Pont-de-Seraing,50.619916699168094,5.511349156465087
567,Heverlee,50.86227660767446,4.69446096328772
177,Boechout,51.16382800159388,4.49404699525959
1663,Haren,50.888870897054744,4.420030838936388
835,Milmort,50.69342290621258,5.599557700763655
1242,Wijgmaal,50.9233034469938,4.700698413816125
515,Ham-sur-Sambre,50.45281278225799,4.672912869837899
286,Courcelles-Motte,50.46202986102244,4.400412086453594
747,Lodelinsart,50.43241893769997,4.463036457517552
742,Linkebeek,50.77339212483393,4.339918296891916
1182,Viane-Moerbeke,50.751952939919235,3.917163280042836
1973,Mouterij,50.83101229975816,4.378599139352779
68,Eerken,50.75433674841785,4.662366455406936
1081,Sint-Job,50.793586213518765,4.360429545901712
997,Rixensart,50.71351481096948,4.530823605161436
133,Beignée,50.33322928698963,4.406633114506781
643,Koksijde,51.078708344787216,2.654140285486822
863,Mortsel,51.18289070974223,4.448811507867791
66,Anzegem,50.826216033991116,3.495470091998172
602,Ieper,50.847477690810365,2.876886293135154
1756,Zeebrugge-Zweedse Kaai,51.3379543183541,3.207438545303836
235,Burst,50.90690477967195,3.920956497963406
369,Erquelinnes,50.30411129311053,4.113617375776282
715,Leuven,50.88136571115078,4.716208512981546
655,Kinkempois-Block 2,50.613198378269416,5.583351457642779
2059,Ham-Doodspoor,51.076438966617424,5.148937542323709
956,Pepinster,50.56851509165158,5.810268537289398
269,Marche-les-Dames-Marchandises,50.48053191922914,4.967202412995651
808,Meerhout-E.C.M.,51.09770246833408,5.097572156422697
1673,Feluy-Cul de Sac,50.5399934671282,4.18506252697335
528,Hatrival,49.98992354993526,5.320445814528347
2096,Y.Straussbrug,51.3269648004644,3.199722881626543
1185,Vielsalm,50.27881504668458,5.909332325340729
1102,Statte,50.528178167667285,5.21961650061351
674,La Louvière-Industriestation,50.48597883133482,4.193672918052559
8,Aalter,51.09225779139449,3.447855382940146
130,Beervelde,51.087172443782855,3.879980395685934
1262,Zeebrugge-Dorp,51.32659216206747,3.196840129702206
1092,Zinnik,50.57312318221692,4.069352245033392
1148,Tilleur,50.619325790518765,5.52959613022457
2061,Schaarbeek-D.O.P.,50.889498664866004,4.408750284691125
493,Haacht,50.96626270702382,4.613329769481095
201,Bracquegnies,50.47436212331982,4.126350513636451
592,Hoei,50.527376421412576,5.234037173214917
169,Blaton,50.505954521715246,3.66570591977767
37,Antwerpen-Centraal,51.216862033537794,4.421083629947415
744,Lobbes,50.34631966923858,4.260948846223764
1133,Tessenderlo,51.06427386601572,5.102136261272698
894,Namêche,50.470279570029426,4.99842958361612
380,Etterbeek,50.8213075599027,4.39049871944438
468,Schaarbeek-Bundel L,50.884306767929104,4.402015980060791
259,Charleroi-Centraal,50.40419960613283,4.438439317373349
810,Mechelen,51.01761866620954,4.483579828080118
1055,Schaarbeek-Josaphat,50.86036295580361,4.395006896335754
168,Antwerpen-DS-Noordzeeterminal,51.35698419281391,4.26288577284775
326,Diest,50.99342002336958,5.050066472491223
236,Rhisnes-Sas,50.50059749700802,4.799814589897698
36,Antwerpen-D.S.-Angola,51.2728550181904,4.364890482874219
1265,Zele,51.073037159646034,4.042379417228101
1089,Sint-Niklaas-Oost,51.176623377622434,4.159519894481113
1088,Sint-Niklaas,51.17159935285642,4.143282196338587
1664,Y.Leopold,51.265094536721655,4.378267575674813
1805,Y.Hammerbrücke,50.70252536154931,6.047488974141808
1013,Ronse,50.74236654443449,3.602611083047574
1676,Y.Wittemolen,51.30336424176047,4.305615449013093
1680,Y.Kastel,51.24397830921987,4.382498742842627
309,Pousset,50.70332698760998,5.304512624755868
311,Aubange-Frontière-France,49.547417836599436,5.812848716460952
1698,Y.Beauregard,50.64892111681978,3.902017170428849
1701,Tourpes,50.56447009015227,3.652160605731437
197,Botzelaer,50.74723510939529,6.010434014733304
1583,Y.Noord Driehoek Aarschot,51.001008540525234,4.832729356436174
1638,Y.West Driehoek Ledeberg,51.02967758231524,3.746497750339571
2005,Schaarbeek-Rooster G,50.894070663258745,4.410268286625447
793,Marchienne-Zone,50.397619848761245,4.389973803252673
196,Haversin-Garage,50.25045779143735,5.192954824931276
1744,La Louvière-Zuid,50.464993656778184,4.19010515835262
208,Bressoux,50.64438317344683,5.612535756048398
962,Piéton,50.43511682114374,4.286129350500978
523,Hasselt,50.93094539063631,5.326071324066093
443,Genk-Zuid-L.O.-Ford,50.923363496226415,5.497283037498502
1747,Verb.Evonik Degussa Antwerpen,51.30588400152173,4.294961995341565
275,Charleroi-A.T.,50.40057400186748,4.458826995197694
1978,Châtelet-Gasoil,50.41133112791496,4.522441728210868
1010,Ronet-P.E.,50.45350230747429,4.822607107568604
1036,Renory 2,50.60595757942486,5.568461420442659
2010,Grens Brussel-Vlaanderen 96L/8,50.801452440661315,4.30374833037238
1405,Athus-Faisceau A,49.567170002345996,5.831179994633867
1749,Verb.Oiltanking 2,51.30830200152036,4.290240995343414
1750,Verb.Solvay,51.31966500151598,4.287036995345587
1751,Verb.IBR,51.335505001509965,4.2834729953483
1757,Verb.Monsanto,51.30932185766309,4.28929299558731
660,Antwerpen-W.H.-B.Zuid,51.25044150178264,4.227542656748896
69,Antwerpen-Noord-Bundel D,51.28845946048409,4.389440046825183
731,Liège-Guillemins-Faisceau,50.61896360708386,5.574667117783871
1249,Antwerpen-D.S.-Amerika-Zuid,51.24203483758788,4.398755224544148
1204,Voroux-Base travaux LGV,50.65951698313057,5.440928696915011
1024,Renory 1,50.605661493274,5.550799562145607
179,Antwerpen-Noord-Bundel A1,51.293708660028045,4.390865070951061
23,Steenbrugge,51.180715001455184,3.229336995692111
2014,Gent-Zeehaven-Darsen,51.08525138625149,3.744107619878901
1688,Brussel-Zuid-T.W.-HST,50.81738214350383,4.314583296127712
1341,Antwerpen-W.H.-A.E.T.,51.26797262829013,4.204036004080676
1374,Brugge-Bundel B,51.18765185045239,3.223256888134882
63,Antwerpen-Schijnpoort-Bundel Q,51.22220407836589,4.445107830319254
429,Vorst-Carwash,50.81639869573356,4.314103145036394
1386,Merelbeke-Sas T.W.,51.019711001567615,3.766436995495043
1412,Racc.Moustier-Solvay 2,50.45417773988841,4.667481842639101
340,Hasselt-L.C.I.,50.936904799096794,5.309750444154401
1446,Verb.Prayon-Rupel,51.08329674812448,4.346849344610908
1518,Verb.Tabaksnatie,51.264647633477715,4.199491970696978
109,Leuven-Bundel Q,50.87644508728029,4.718516879605718
734,Liers-Faisceau,50.69978530450907,5.558491077982493
932,Oostende-Bundel A,51.22056962857501,2.933759386891722
858,Montzen,50.72472341096218,5.938093761638291
1471,Gent-Zeehaven-Sifferdok L.O.,51.09109684116149,3.74990590965545
2027,Charleroi-Faisceau A,50.406101637859585,4.429883217823138
2043,Zeebrugge-Bundel Zwankendamme,51.306113487654024,3.191733656733771
1211,Gent-Sint-Pieters-Bundels,51.03655378653426,3.703917085694866
7,Aalst-Oost,50.93653755329412,4.049055382200534
1231,Zolder,51.033639116270635,5.330784089179512
1155,Tilly-Garage,50.55294735706996,4.550490586788605
1767,Bockstael,50.87943983166831,4.348514000855896
954,Pecrot,50.779266845086774,4.651601336707822
1228,Welle,50.90304992098791,4.05086651791031
365,Erembodegem,50.91929248249657,4.055478044299816
1730,Sint-Gillis(Dendermonde),51.02208185742186,4.117208570505743
392,Farciennes,50.42914428371283,4.552667151670986
907,Nijlen,51.15960165747347,4.664476042560455
229,Buda,50.90808941401188,4.417587678075591
471,Godarville,50.49295177248584,4.290252782915575
788,Marche-en-Famenne,50.222535392854475,5.34617844744314
686,Langdorp,51.00246923181287,4.863538493784459
151,Beveren(Waas),51.208473876872844,4.260777895162216
1235,Wevelgem,50.81106670481992,3.182483664800671
345,Ede,50.91099162785289,3.987780754836433
825,Hergenrath,50.70921125797968,6.04303249405493
155,Bierset-Awans,50.65843789782589,5.460786562650455
479,Gouy-lez-Piéton,50.49572848742678,4.324807411007554
634,Kapelle-op-den-Bos,51.010827123385425,4.358811372849264
1146,Tienen,50.8079314339937,4.925636678946889
797,Maria-Aalter,51.10757473497731,3.386700586663826
480,Graide,49.93372052397986,5.043616894147011
824,Diesdelle,50.79612575604862,4.373898950394146
187,Booischot,51.037499464688636,4.772796366390144
160,Bissegem,50.82579327658622,3.224088411817595
1229,Wervik,50.781855330951956,3.046976838293909
1043,Sart-Bernard,50.406741726327766,4.948563267648817
815,Melle,51.002749921068165,3.796939037051605
837,Moensberg,50.777890962664365,4.329808312415132
991,Remicourt,50.67864345114512,5.321422014482167
1130,Terhagen,50.90182412616037,3.897482385381147
1238,Wezemaal,50.95636089869388,4.748012297469645
1136,Thieu,50.46967181239604,4.098467909523017
1085,Lierde,50.81658982280488,3.825714387767464
533,Havinnes,50.61882981688033,3.49566068071467
989,Rebaix,50.66104886044587,3.793534075384883
506,Halle-Goederen,50.73856640826248,4.245188244191178
289,Court-Saint-Etienne,50.645568864411956,4.56554152667738
1076,Sint-Denijs-Boekel,50.874198889945404,3.698421279546744
336,Duffel,51.091684329214274,4.492767295335319
231,Buggenhout,51.01631183819492,4.200760136726267
1083,Sint-Katelijne-Waver,51.07092770112268,4.495807348133646
563,Herzele,50.89692470109805,3.879519908406242
232,Buizingen,50.75154826326621,4.258657550563639
559,Herne,50.72369800894415,4.014372844199131
540,Heist,51.334177499078464,3.240489638663327
553,Herent,50.90358929255643,4.672141055672479
2131,Lijn 50A-Seinen B135/A148,50.84789439014817,4.188037451634185
739,Limal,50.69197975199437,4.575848696098152
864,Mortsel-Deurnesteenweg,51.18231715581698,4.447187644772542
368,Erps-Kwerps,50.89654505809275,4.584930600736926
1186,Vijfhuizen,50.94318180227395,3.982544127196197
952,Papegem,50.687655087352056,3.824299419853787
247,Cambron-Casteau,50.58696925909204,3.873974629508698
2011,Ougrée,50.60537053983336,5.53695657290209
328,Dilbeek,50.86638979130907,4.243574071280418
507,Hambos,50.944395574176696,4.663253957778934
2089,Anderlecht,50.817918890620895,4.29153935389493
416,Vorst-Rijtuigen-Dienstperron,50.81765222720072,4.314635011467654
1324,Verb.Halterman,51.29127619573104,4.294477454638582
1336,Racc.Dumont-Wauthier,50.56741713850801,5.366845895531497
59,Antwerpen-Noord-Perron CHW,51.296168471020415,4.358858036934712
1972,Verb.Bedrijvencluster Puurs,51.08610262031723,4.352958403760934
358,Kinkempois-Relais,50.60647571597552,5.572330520059823
509,Verb.Haren-MIVB,50.879769794615065,4.411814412972347
1448,Verb.Ivarem,51.11574105663128,5.016954560844463
796,Le Coucou-Base LGV,50.6265230058953,3.847030676482783
1488,Lijn 204-Kruising lijn 58/2,51.07213268094138,3.742896727225206
1710,Verb.Nova Natie,51.281087266292516,4.272170205760659
1719,Verb.Hoboken-Umicore,51.16676757527753,4.342805560819178
1724,Gentbrugge-Perron C.W.,51.029577695344535,3.752448334641758
1904,Grens Brussel-Vlaanderen L50C,50.822810988701384,4.247584807962418
2132,Lijn 50A-Seinen 292,50.92739889320508,3.983556060456235
2135,Lijn 50A-Seinen 467,51.00809603829955,3.773088144889906
397,Grens Brussel-Vlaanderen L36N,50.89195621239934,4.428009322047175
437,Grens Wallonië-Vlaanderen 2 L2,50.70280103984327,5.132586312889414
1772,Grens Wallonië-Vlaanderen L24,50.748359558099246,5.777144124621691
1774,Grens Vlaanderen-Wallonië 24/1,50.74899536721568,5.707738402865822
1779,Grens Wallonië-Vlaanderen L34,50.75737043368329,5.521759925376799
1781,Grens Wallonië-Vlaanderen L40,50.75024963268392,5.69652000539148
1782,Grens Brussel-Vlaanderen L50,50.87056850184383,4.28556860814999
1783,Grens Brussel-Vlaanderen L50A,50.82271853162751,4.247494852299234
1786,Grens Wallonië-Vlaanderen L69,50.797358375516545,2.955087265417901
1790,Grens Vlaanderen-Wallonië1 L94,50.7216320884929,4.172321419971221
1793,Grens Brussel-Vlaanderen L96,50.80172918346389,4.303588038601937
1794,Grens Vlaanderen-Wallonië L96,50.706298950401866,4.212872429884716
1815,Grens Brussel-Vlaanderen 36C/2,50.9004588170747,4.426599755101946
1132,Tertre,50.46468648648759,3.829037691009771
1270,Zichem,51.006658165424646,4.987321399197209
488,Groot-Bijgaarden,50.86839848514289,4.274515963982332
105,Balegem-Dorp,50.92004304051835,3.791056533864412
277,Comblain-la-Tour,50.45662378972361,5.567151863844289
470,Glaaien,50.750527352637484,5.535236934399886
862,Morlanwelz,50.45819475895926,4.247606842005881
606,Izegem,50.92110934791895,3.21346951707641
590,Hove,51.15406191789155,4.465214254147384
957,Pepinster-Cité,50.56337539238289,5.804595719150974
822,Merelbeke,51.020057593681734,3.764835020911601
1066,Schelle,51.125420284993226,4.340225752794691
366,Ernage,50.592425164448926,4.667147778258966
906,Nieuwkerken-Waas,51.18508212954049,4.184439116403614
743,Lissewege,51.29470102888716,3.194426918229498
897,Natoye,50.343363707549074,5.061281004187228
1167,Ukkel-Kalevoet,50.79221449555428,4.331745965347926
261,Chastre,50.60757597085545,4.65013041163728
750,Lommel,51.211527124043826,5.310537299130095
1218,Waterloo,50.715533973277154,4.383453531843166
781,Malderen,51.01428356975301,4.231399792037534
1017,Ruisbroek-Sauvegarde,51.081104584314794,4.326980819832666
566,Hever,50.99640059409282,4.540771399949431
243,Sint-Agatha-Berchem,50.873033681208796,4.290747342200437
364,Erbisoeul,50.5078636253228,3.888447711073647
223,Brussel-West,50.85205607050756,4.322817267052568
923,Okegem,50.85712457162398,4.054122152641436
992,Coo,50.3913133463726,5.880941145714396
128,Beersel,50.76636810390514,4.302343410248635
754,Lonzée,50.55197706629923,4.720151428541858
604,Ingelmunster,50.91484341700642,3.254708319352296
1244,Wildert,51.4275703117922,4.463422810773211
252,Céroux-Mousty,50.6593132895864,4.569055560535676
853,Thimister-Clermont,50.63769826896919,5.844119847694029
1732,Zelzate-Grens,51.21081691002794,3.799829048137098
1556,Y.Oost Driehoek Lillo,51.30135382403183,4.339173061319523
1611,Y.Ruisbroek,50.799355620897664,4.301613548494579
1641,Y.Zaventem,50.88350887032009,4.481587510182695
1644,Y.Walenhoek,51.3093015853945,4.341110186512785
50,Antwerpen-Noord-Blok G9-H9,51.29554429416346,4.36107569141348
1120,Schaarbeek-Groep R,50.888951436843996,4.408535403559564
1207,Walcourt,50.258623307603074,4.435775728291916
936,Ottignies,50.671773574303224,4.570373990520092
1161,Turnhout,51.32327000158529,4.938189995120822
266,Chênée,50.60835327318151,5.614856781125281
630,Kalmthout,51.389739416824185,4.466700911173807
377,Essen-Grens,51.469098771660335,4.448910215416983
615,Jemappes,50.45256323711496,3.885169785310784
221,Brussel-Noord,50.85959959838314,4.361252318634824
402,Flémalle-Haute,50.59463893442038,5.456315954565175
732,Lier,51.13604368651541,4.561775772658214
1613,Y.Saint-Vaast,50.469456482159366,4.173994685302219
1624,Gent-Rooster Snepbrug,51.04005123578279,3.687987169995358
241,Brussel-Noord-Rooster F,50.86611370004746,4.364155779256233
1285,Zaventem-Rooster P/Q,50.885939411734306,4.46794075837166
1807,Y.Melsele,51.21101786541174,4.290969472294216
1810,Y.Ketenis-Oost,51.26698746729479,4.279190348731118
1531,Y.Familleureux,50.51454882340554,4.220301515410705
1534,Y.Eine,50.85515810741871,3.606325629666232
1544,Y.Heike,51.01329401334824,4.415647769142333
811,Mechelen-Nekkerspoel,51.030011706650285,4.490206757525486
1294,Racc.BP Chemicals,50.55627228101702,4.220923355812272
1303,Genk-Zuid-LO-Inrit Zuid FORD,50.91888443909009,5.49923498060577
40,Mechelen-Dijkstraat,51.03649755387239,4.490836096632229
1333,Racc.MGM-Winters,50.5635703922857,5.363657172165476
1340,Y.Haandorp,51.254468206121636,4.205296128378987
65,Y.Bernadettestraat,51.077144617847274,3.751844035099737
92,Y.Amerika,51.2489446461797,4.387721851448124
1567,Y.Linkebeek-Halle,50.78415112982486,4.341374082674727
1568,Y.Lint,51.1290229744546,4.488599079768374
1570,Y.Louvain-la-Neuve,50.653380847584735,4.585628215237461
1573,Y.Martinet,50.41486278585258,4.391533890113458
1576,Y.Molenbeek,50.864848809920964,4.724307228105507
1580,Y.Neffe,50.24244452596003,4.916954243598672
280,Courbe de Jurbise-PN 78,50.53589492854213,3.918252329550494
1381,Y.West Driehoek Lillo,51.29892746343384,4.337819422191377
693,La Sambre,50.402988048419836,4.407723840259991
696,Lavaux,49.793032717576985,5.498816915946619
1361,Racc.Polyol,50.48461328869556,3.794412085085145
116,Kortrijk-Ringlaan,50.80933918507363,3.227222029845416
1382,Y.Noord Driehoek Lillo,51.300993497356274,4.335622660219842
1510,Brugge-Rooster E,51.18466474034449,3.224491418337755
1511,Y.Bois-d'Haine,50.510388294023166,4.219957243762623
1512,Y.Boksbergheide,50.96653612601128,5.465481943351541
310,Y.Diest,50.99161337469609,5.060225996579834
1662,Y.Berliwal,51.302217008973386,4.339413480562668
709,Y.Le Coucou,50.62436038763215,3.841293110197034
1828,Y.Farnese-Zuid,51.26463070600432,4.281313334678372
1829,Y.Kalishoek-West,51.279698951722224,4.262883105152799
1835,Y.Assels,51.04307891270677,3.673838024356378
1901,Wondelgem-Inrit Bundel,51.08301775667942,3.717840589954122
1929,Y.Wippelgem,51.14790934270049,3.742750281944779
1942,Genk-Goederen-Museumlijn,51.00025049900933,5.477456871615279
966,Plomcot,50.46837780726179,4.882956151183391
1557,Y.Kortrijk-West,50.82940052822928,3.247974508278324
1560,Y.La Paix,50.47068972938062,4.159551878299006
322,Dolhain-Vicinal,50.61672373526244,5.936919341329473
334,Montzen-Gril M,50.72861245128949,5.927770497372377
760,Lier-Rooster D/E,51.135609678087214,4.558240352859928
1975,Tunnel Overboelare,50.757331813764615,3.88094236598683
1980,Zeebrugge-Rooster F,51.29792181809493,3.193490429298646
1983,Braibant,50.30656300400696,5.077862215543343
1985,Y.Rooierweg,50.87843960200703,5.507399146736585
172,Y.Muide,51.0733777551186,3.737757578797533
1586,Y.Noord Groenenhoek,51.19601100157599,4.435266995282905
1589,Y.Nord,50.40745107992429,4.416174176753907
2008,Ruisbroek-Bundel-Inrit,50.8024371638928,4.304387596447704
2041,Entrée Racc.Moustier-Solvay 1,50.45531746713916,4.670369874957419
993,Raeren,50.6664980019642,6.131057994638165
1462,Y.Kalishoek-Oost,51.28849851484311,4.276693858381955
175,Y.Criquelion,50.44698109741429,3.840231010493205
1515,Y.Borgnet,50.596818962560505,5.469314015008571
1516,Y.Blauwe Toren,51.24270631942836,3.207289190671245
1526,Y.Driehoekstraat,51.28675163764724,4.422386990123357
1527,Y.Duffel,51.122121389640185,4.483244847063056
1528,Y.Ecaussinnes,50.58322684264702,4.130258427346865
1529,Y.Ekersedijk,51.2840503306846,4.386632815630939
1632,Y.Voroux,50.658428280610686,5.450848545627201
1633,Y.Watermaal,50.814306286692315,4.401298700700068
1634,Y.Welle,50.90427252812408,4.050995842275544
1635,Y.West Berchem,51.19650856001268,4.433616476007313
1640,Y.Zandberg,50.83577387268734,3.291689608501441
1642,Y.Zonhoven,50.94981537556829,5.328240849294057
1648,Y.Kruisberg,51.186830734156864,4.836302977757426
1650,Y.Forchies,50.43326263322212,4.309649652545628
543,Heike-Rooster K/L/C,51.02017584257746,4.401012978377699
1668,Verb.3M Belgium,51.23668692288192,4.33043662294371
1677,Y.Aven Ackers,51.24968201799232,4.204404702638358
1682,Lijn 10-Rooster C/D,51.24191554125654,4.216720415895266
1699,Y.Patard,50.63121561559219,3.859282997671297
1473,Y.Antwerp Euro Terminal,51.26169000152744,4.20076799536973
26,Oostende-Rooster G,51.21651507143641,2.945017046040116
1711,Verb.Shipit,51.27966100152778,4.264378995349597
1720,Y.Koestraat,51.24845603974309,4.238968975501072
1725,Y.Koksijde,51.07990813790188,2.643355237656416
1726,Y.Gingelomstraat,50.7524647439475,5.095382895481295
2069,Racc.Fockedey,50.482798181958174,3.785649081401555
1444,Genk-Zuid-L.O.-L232,50.93517914324326,5.476081791035542
981,Quenast,50.67289478135914,4.172580742926239
532,Haversin,50.24958547235042,5.193879552914665
1759,Antwerpen-W.H.-B.Canada,51.24561630402557,4.33124312645993
1149,Tilly,50.55665902549565,4.551641295072792
617,Rochefort-Jemelle,50.16041579741265,5.266796362528351
35,Antoing,50.569648067428595,3.451351534219263
209,Brugelette,50.593960141371475,3.852911657073794
899,Neerpelt,51.22237547958096,5.437315565832811
2000,Vorst-Bundel M,50.81406170602273,4.313154272980963
98,Antwerpen-D.S.-Oudendijk,51.3259562684617,4.285493327769302
789,Marche-les-Dames,50.480718861804796,4.964576135362847
794,Marcinelle,50.40681073227917,4.425009231843675
929,Oostende,51.22794248315333,2.926625863197556
764,Antwerpen-Luchtbal,51.24356131845809,4.424880242352095
333,Gedinne-Marchandises,49.98522277357419,4.978550757453018
205,'s-Gravenbrakel,50.60484523104407,4.138162426655214
502,Halanzy,49.55597176168689,5.742228911420838
620,Jemeppe-sur-Sambre,50.45094942294263,4.662626762258042
454,Gent-Rodenhuize,51.12980184657605,3.784443038803603
274,Clabecq-Marchandises,50.67623548703199,4.221196650944248
1982,Bois d'Ausse,50.40132405813825,4.98626175713774
562,Herstal,50.66038889612703,5.622362799581048
688,Langerbrugge,51.119967291800386,3.751415532955656
272,Ciney,50.29201497586893,5.0906965755074
723,Libramont,49.920246581133696,5.378998507038368
1048,Schaarbeek,50.87869266989909,4.378431524039678
644,Kontich-Lint,51.13368368793974,4.47689680687504
1097,Spa,50.490244499849005,5.855783501762831
673,La Louvière-Centrum,50.477715304331944,4.180068630195054
1054,Schaarbeek-Vorming,50.88917700168244,4.399140995266
188,Boom,51.09092845876141,4.360441525923846
710,Lessen,50.71290774870706,3.836861179155217
1276,Zutendaal,50.927598642983384,5.514537675546936
424,Franière,50.439609337705065,4.733609958418976
845,Monceau-Formation,50.42627800185044,4.391591995223401
1734,Y.Ronet,50.459299323452264,4.830357979400865
1050,Schaarbeek-T.W./D.,50.88415566718866,4.400226576190104
869,Moeskroen-Grens,50.722069468140326,3.196167350821146
1765,Racc.Engis-Carmeuse,50.58007995462714,5.410206224630039
1769,Y.Laken,50.87800659383238,4.353151787508736
1049,Schaarbeek-T.W./E.,50.892840557664925,4.410489511691397
1051,Y.Schaarbeek-Groep G,50.88794766872853,4.408543336809576
1058,Schellebelle,51.00312616442199,3.92143307788236
1125,Tamines,50.432082424904884,4.60886693717308
417,Vorst-Rijtuigen,50.816782001699316,4.313919995288319
370,Erquelinnes-Frontière,50.30270508655415,4.109180654923977
373,Esplechin-Frontière,50.572024597733694,3.278451097702653
1502,Y.Aubange,49.55626693718265,5.820012126197353
977,Puurs,51.07712360025247,4.283513007479713
288,Cour-sur-Heure,50.30090257757173,4.392087977820365
404,Fleurus,50.483141103888876,4.544831466361379
203,Eigenbrakel,50.68475914261351,4.37582344502392
745,Lobbes-Garage,50.3468040847804,4.257260015531566
218,Brussel-Luxemburg,50.8388378181944,4.373972450132626
1268,Zeebrugge-Bundel Pelikaan,51.293402007346224,3.227961830251574
461,Gellingen,50.65786733604745,3.857594476526546
748,Lokeren,51.1070280724398,3.985383235145282
77,Aat,50.627030183302196,3.776393685659921
632,Kapellen,51.31359271091834,4.432805301554844
435,Gedinne,49.98409071470052,4.97816774883466
96,Antwerpen-D.S.-Rhodesië,51.27224913715692,4.347676923997589
1601,Y.Zennebrug,50.87442053616948,4.363714333671711
1606,Y.Zuid Everstein,51.098943411368545,3.72072496332551
1808,Y.Geslecht-Oost,51.28713191608952,4.286206884767448
1816,Machelen-Ring,50.90331231538789,4.437333613372356
1820,Antwerpen-Kiel-Rooster I/J,51.20098907061844,4.372785595896113
54,Antwerpen-Noord-Uitrit B3,51.2908499803168,4.399637428516811
1533,Y.Feluy,50.53776290525553,4.187783098111368
872,Muizen-Goederen,51.01368117049649,4.50614191435019
1888,Wondelgem-Bundel,51.08555875571956,3.718855591052504
511,Antwerpen-Noord-Perron MainHub,51.29880704158848,4.370846019384659
1679,Racc.Seraing-Cockerill-6,50.60391300191818,5.550943994837318
372,Gent-Kluizendok-Noord,51.16457951528037,3.780115043143047
948,Oostende-Bundel B,51.217811890268024,2.939273702770107
55,Antwerpen-Noord-Bundel C1,51.289043251766316,4.388902560926022
46,Antwerpen-Noord-Bundel B1,51.300458442021664,4.35648732303521
1479,Antwerpen-W.H.-B.Verrebroek,51.27497800152308,4.204369995369749
1373,Brugge-Bundel A,51.19062100585642,3.221693724740042
487,Groenenhoek-Wijkbundel,51.195260729841756,4.436899106793597
1427,Kinkempois-Réception,50.604783647159316,5.561372780863632
204,Antwerpen-Noord-Bundel N,51.289745910143296,4.391548539066769
1812,Monceau-Block 16,50.440650001845356,4.393387995224201
1817,Arlon-P.E.D.,49.67781182896264,5.817160222410045
244,Antwerpen-Noord-T.W.,51.291964001536215,4.383838995309691
1387,Mons-Aviation,50.466069001786785,3.948305995379291
1505,Antwerpen-Noord-Bundel Bvrd,51.29066242456527,4.385138314248752
300,Châtelet-Faisceau C,50.42123978991945,4.537954220733873
1410,Racc.Moustier-Solvay 1,50.45325306594307,4.670042951290745
1996,Verb.Hemiksem-Verbeke,51.15236760319608,4.342952441625297
2013,Lauwe-L.A.R.,50.78014200159438,3.203974995662221
1485,Antwerpen-Noord-C.H.W.,51.30036200153006,4.354519995320569
640,Origine.L125L/2-3,50.609179219412674,5.57488084502755
650,Kortrijk-Goederen,50.817224001585565,3.246422995651524
1911,Antwerpen-Noord-Bundel C3,51.29657637378508,4.356333632578292
2016,Gent-Zeehaven-Sifferdok R.O.,51.09692352417892,3.75068089343158
264,Châtelet-Formation,50.41955600186859,4.530826995174737
1997,Antwerpen-Noord-Doodsporen A1,51.2900635501798,4.403804495868877
444,Genk-Zuid-R.O.-Haven,50.94337096661944,5.491556611062787
91,Antwerpen-D.S.-Alaska,51.25005700155015,4.374639995308898
80,Monceau-Réception,50.43599000184689,4.391655995224335
2002,Antwerpen-D.S.-West-Siberië,51.24839391308396,4.402480013898666
85,Antwerpen-D.S.-Groenland,51.25744800154726,4.372281995310408
76,Antwerpen-Schijnpoort-Carwash,51.222878001567295,4.443561995282594
871,Muizen,51.00823700109542,4.514109018598967
968,Poix-Saint-Hubert,50.019463437274744,5.292645675853187
510,Hamoir,50.42832918725482,5.533840033385975
870,Moustier,50.452728270830725,4.693813691441016
938,Oudegem,51.014737627992446,4.062437122289404
841,Mollem,50.932896546874765,4.216581185073014
262,Château-de-Seilles,50.497212725023616,5.081752631616731
519,Harchies,50.48205917063363,3.699302076649094
1068,Serskamp,50.98453800875389,3.959538984169734
215,Brussel-Centraal,50.84531101978561,4.35675831766839
139,Antwerpen-Berchem,51.1988702961587,4.432979473543215
148,Beuzet,50.532974982431014,4.750194075854363
805,Masnuy-Saint-Pierre,50.536335796446835,3.962143546959787
413,Forchies,50.433128757386235,4.323472828215522
1254,Yves-Gomezée,50.237995850240075,4.490419768073481
701,Lede,50.970970941375874,3.985076835022102
530,Haute-Flône,50.55424859743379,5.331294580631765
399,Fexhe-le-Haut-Clocher,50.66429943408551,5.397266517996256
790,Marche-lez-Ecaussinnes,50.54620487800974,4.177102420598815
1063,Sclessin,50.61036517564539,5.55669507871075
249,Carlsbourg,49.903721616182835,5.09754707829283
1256,Zandbergen,50.80691967863315,3.956989676456527
1059,Schendelbeke,50.79778703486261,3.899162975185788
535,Havré,50.47086130374264,4.058356446670643
1113,Sy,50.40330835945356,5.523618360082942
699,Lebbeke,51.00475356147399,4.134881157174673
901,Nessonvaux,50.57198592493546,5.741746104791544
184,Bokrijk,50.955795456999596,5.408576048052186
514,Ham-sur-Heure,50.320541575191406,4.405047354650665
636,Kiewit,50.95466485008808,5.350407516097127
212,Brugge-Sint-Pieters,51.22266043095538,3.201678747582974
974,Poulseur,50.5089593315108,5.578188092061416
410,Florival,50.761456831505605,4.654204552702843
412,Fontaine-Valmont,50.32086424659956,4.211513539319487
157,Bilzen,50.868680426197486,5.509372414884934
27,Angleur,50.61253000192086,5.600948994820556
1979,Thurn en Taxis,50.87155655999172,4.340863745355737
550,Hennuyères,50.65091444999998,4.176132141679284
1768,Simonis,50.86599657853117,4.334138582968338
192,Bornem,51.09898501545822,4.240696490818711
414,Vorst-Oost,50.81020033751361,4.320981153478699
637,Kijkuit,51.37923641584364,4.467294323328127
1141,Thulin,50.423428643848624,3.745946901340142
1234,Wetteren,51.00149929084834,3.881915592818523
1413,Racc.Marche-Défense Nationale,50.24413291094082,5.390790752036771
1220,Antwerpen-D.S.-Combinant,51.37155916534415,4.288421297607733
1187,Ville-Pommeroeul,50.464526837178994,3.724432978367793
521,Haren-Zuid,50.889616892134654,4.415076991166356
138,Belsele,51.15105293420193,4.088971325808107
1168,Ukkel-Stalle,50.80248548912509,4.323778171903269
216,Brussel-Congres,50.85178018311057,4.362219760072247
363,Eppegem,50.95840721352074,4.457499467095007
24,Ampsin,50.53917375822986,5.288862316887595
1159,Trooz,50.57328744502597,5.688448772904129
351,Eke-Nazareth,50.96156491571629,3.627889375856963
486,Groenendaal,50.766147386895206,4.44935705453385
1912,Arcaden,50.809668214471365,4.398413181937825
120,Basse-Wavre,50.72414363271483,4.621220383958832
1230,Wespelaar-Tildonk,50.958554857806234,4.637792321159048
1057,Schaarbeek-Perron P.C.I.,50.90161855777666,4.414710414550336
1284,Verb.Exxon Chemicals,51.10608142857823,5.058184137162708
253,Antwerpen-Noord-Perron T.C.T.,51.290348833326746,4.384398447678223
1320,Verb.Kallo Storage,51.270518001534874,4.300231995336415
1321,Verb.Lanxess,51.27208000153453,4.302144995335905
1338,Racc.Belle-Roche,50.47997242174968,5.609485360257267
949,Oostende-Perron T.O.P.,51.21974736604655,2.935538629001256
1371,Racc.Palifor,50.56557318669809,5.372077592171307
1378,Verb.ACS,51.277336076141644,4.336693354156824
1359,Aigremont-Block 8.7,50.587971683182616,5.42525551666229
315,Verb.Deerlijk-Casier,50.83488861767098,3.352042104138889
526,Hasselt- Rooster S,50.936820714686746,5.302874693032362
1443,Verb.H.Essers,50.85599580839716,3.24296888880325
1464,Verb.Bayer Rubber,51.24302642020266,4.336312435795622
1467,Geel-Containerterminal,51.13556532300038,4.941781303831167
1522,Verb.IVC,51.27160200154346,4.383785995307785
1903,Lijn 50C-Seinen BY82/AY82,50.825446651326146,4.239178462107708
1943,Leuven-EBP sporen 471/472,50.87636954806891,4.718144233144227
2134,Lijn 50A-Seinen 394,50.97069964029367,3.85403407116665
388,Grens Brussel-Vlaanderen L36,50.89201340317782,4.427885528405809
390,Grens Brussel-Vlaanderen L36/1,50.892448726765465,4.428389158169091
403,Grens Vlaanderen-Wallonië 2 L2,50.70736757921862,5.101231847578477
430,Grens Wallonië-Vlaanderen 1 L2,50.71456504707099,5.066290681993039
452,Grens Brussel-Vlaanderen L96B,50.801663874006834,4.303632301794854
639,Kapelle-op-den-Bos-Zeekanaal,51.01108443671046,4.364724350151405
1022,Ruisbroek-Zeekanaal,51.08596869736722,4.35275917918841
1046,Lijn 36/1-Spoor 059,50.893914069452435,4.42546836595912
1258,Willebroek-Zeekanaal,51.065943869220504,4.364934019271089
1344,Grens Brussel-Vlaanderen L36/3,50.89204767683821,4.428058555185492
1358,Grens Brussel-Vlaanderen L25N,50.90053246991464,4.42653985701455
1380,Wondelgem-Wiedauwkaaibrug,51.073124293346446,3.727117135706435
1775,Grens Brussel-Vlaanderen L25,50.90620786887927,4.415822205340985
1784,Grens Brussel-Vlaanderen L60,50.88208640123681,4.298255069670478
1785,Grens Vlaanderen-Wallonië L69,50.780224299412396,3.029503178080312
1789,Grens Vlaanderen-Wallonië L90,50.747821159614624,3.850525120037368
1796,Grens Vlaanderen-Wallonië L106,50.70626764533146,4.21299956516424
1798,Grens Vlaanderen-Wallonië L124,50.73052275100566,4.378427123179877
1799,Grens Vlaanderen-Wallonië L139,50.79659378847005,4.650616076240006
1800,Grens Brussel-Vlaanderen L161,50.77706845252952,4.429731263630358
1801,Grens Vlaanderen-Wallonië L161,50.75232730538238,4.481372586341471
1804,Grens Vlaanderen-Wallonië 1 L2,50.7508106687654,4.953447651906436
1351,Racc.Yara,50.481704838492746,3.80818757719348
2042,Lijn 11/1-Kruising lijn 223(1),51.305713014190076,4.340013539633468
2087,Lijn 220/1-Kruising lijn 221A,51.264808755147094,4.383264193224111
255,Chapelle-Dieu,50.55789332460762,4.698674795359371
2130,Lijn 50A-Seinen BX82/A84,50.82535838663443,4.239091398731753
189,Boondaal,50.801951889621996,4.393613977537654
433,Gastuche,50.73643857537926,4.649935387130403
348,Eine,50.871000895022995,3.623822543985241
104,Aalst-Kerrebroek,50.94821624613979,4.024772702343128
1261,Zedelgem,51.126381461398005,3.163480495051282
738,Lillois,50.64367353246769,4.363394702678375
568,Hillegem,50.89129484430886,3.857476893082532
107,Balen,51.16831361296897,5.166049651618022
1079,Sint-Genesius-Rode,50.74811387437947,4.361939405198446
705,Leman,50.59896972583936,5.465658900379582
682,Landegem,51.06421597718289,3.57704576219589
1761,Delta,50.81920158758551,4.404357132216068
136,Bellem,51.08372389725801,3.487287359353551
100,Aye,50.2248529224513,5.300638767175158
579,Hony,50.54017176737816,5.573926108998182
583,Houraing,50.702881501429985,3.835231437708677
246,Callenelle,50.527311586615326,3.526278070673758
1266,Zellik,50.889543320907,4.275293625047353
30,Antwerpen-Haven,51.29142802003464,4.379600947849866
1723,Zeebrugge-Strand,51.3244824906541,3.186399065066345
565,Heusden,51.03831376551328,5.280683551561018
873,Munkzwalm,50.875656666067506,3.731514205002289
199,Bouwel,51.16584351392913,4.747581819970593
600,Iddergem,50.876839948861615,4.068558143547746
494,Haaltert,50.907066641303196,4.021716617534101
821,Merchtem,50.95391293799017,4.223681249280842
629,Juslenville,50.544523352435114,5.810241413122571
598,Hergenrath-Frontière,50.71847319202616,6.041259764326717
478,Gouvy-Frontière,50.17301613839429,5.965393265025779
1196,Visé-Frontière,50.758818068201954,5.703042281601014
913,Namur-Herbatte,50.469169910735076,4.869133583242475
1160,Tubeke,50.69169220545364,4.20581147629095
379,Evergem-Overdam,51.0944960926342,3.677635876254885
97,Antwerpen-D.S.-Zandvliet,51.33407100151537,4.329299995332416
320,De Pinte,50.998952524822585,3.655383901672195
684,Landen,50.7478945465236,5.079627434738533
830,Rogier,50.85849834862062,4.380169295573313
1282,Zwijndrecht-Rooster D,51.21418437339737,4.331371407893982
1617,Y.Ford,51.2645780559906,4.38562504740141
1809,Y.Geslecht-West,51.287731180841874,4.279983129215713
1811,Y.Jubelpark,50.8506293954095,4.395640418794033
1819,Antwerpen-Kiel-Rooster W/U,51.189156946917024,4.362153360872642
1822,Y.Ketenis-Zuid,51.265431574580916,4.275226140005158
618,Jemeppe-Froidmont,50.45963902860139,4.669325838328373
1072,Y.Silly,50.65548014394379,3.918882768570376
419,Vorst-Noord,50.822690631804925,4.31828730182179
1532,Y.Farmanstraat,51.07472085960021,3.745056173509881
1536,Y.Vorst-Oost,50.824662394127934,4.324692591125659
1538,Froidmont,50.639858035439346,5.597237956818754
874,Y.Muizen,51.01896150310191,4.499111373677622
1309,Racc.Burgo Ardennes,49.551141283307295,5.50302082585775
1290,Genk-Zuid-LO-Inrit Noord FORD,50.93329600178943,5.491477994890237
1308,Racc.Visé-CBR,50.744551448966746,5.691399219955489
1566,Y.Linkebeek,50.77426174842316,4.338532139792902
1572,Y.Mariemont,50.46139347425163,4.210703196018389
1574,Y.Melle,51.00127076963502,3.799772744522155
1579,Y.Nederboelare,50.78114798530082,3.875019009371746
285,Boksbergheide,50.96486362145282,5.458178589633228
1354,Y.Machelen-Zuid,50.90473849077819,4.441374824794805
1840,Y.Arendstraat,51.20607457329243,4.426135291036107
503,Halle-Ring,50.72926216822809,4.235457697455453
1551,Y.Bockstael,50.88080126281027,4.344234634496242
1552,Y.Josaphat,50.87162145329261,4.375211552481995
1559,Y.Kruiske,51.29239170140867,4.354243890712232
1562,Y.Leiebrug,50.82595266348292,3.252549645842193
1260,Zaventem,50.885632548337114,4.469909600155111
1067,Seraing,50.60883252731699,5.514078318342331
1198,Viville,49.68828394053227,5.785474662429645
900,Neerwinden,50.76376087904074,5.036335028170957
560,Herseaux,50.71428726455946,3.24481180953509
405,Florée,50.357541983874405,5.056427261179839
976,Pry,50.26875846291183,4.430333398622681
809,Mazy,50.51340076467429,4.675936277319987
814,Melkouwen,51.095163902445975,4.67120807182244
110,Bambrugge,50.913783368112675,3.935959775753258
395,Faux,50.62178659810776,4.549374449348136
1232,Wolfstee,51.16893689590626,4.789732769538759
1253,Wichelen,51.001758503990175,3.974883903141969
1038,Visé-Haut,50.74390230078242,5.69915087572992
877,Mortsel-Liersesteenweg,51.169548577434576,4.469151255029592
832,Mévergnies-Attre,50.600273014504275,3.832948437056826
406,Floreffe,50.44348110262792,4.762999763962485
570,Hoboken-Polder,51.183114878956644,4.34866759837548
574,Hofstade,50.988539649222346,4.498451705048018
1206,Waarschoot,51.15444063936785,3.615186997305616
267,Chaudfontaine,50.58695623775602,5.644168864995391
1107,Stockem,49.69093190226452,5.767977032812465
415,Vorst-Zuid,50.810073408172734,4.310347515402428
654,Kwatrecht,50.99155010054474,3.833335262496046
1666,Overpelt,51.215549622947385,5.423126886234479
728,Luik-Carré,50.64016117047732,5.561580820714428
1047,Schaarbeek-Carwash,50.88357965237167,4.399384981417027
436,Geel,51.169052549858385,4.989631494192635
638,Kinkempois-Formation,50.608800001919754,5.579665994827687
1194,Virton,49.56075846267675,5.518329536948791
1145,Tielt,50.99003689048316,3.328627110235745
1302,Turnhout-Bundel,51.328280001583785,4.94090999512035
41,Antwerpen-D.S.-Wilmarsdonk,51.27423200154236,4.382366995308522
724,Lichtervelde,51.025212177341054,3.126819220887453
283,Izegem-Sas,50.92120714692377,3.219680037338991
126,Beauraing,50.113835526135354,4.957023362536677
951,Paliseul,49.89495830705849,5.119206133526989
982,Quévy,50.34148798303996,3.909640484650724
1157,Trois-Ponts,50.369284407472335,5.873340705435789
798,Mariembourg,50.09533742372334,4.525417233992525
733,Liers,50.69817964040005,5.566911104405785
185,Bomal,50.376893421466065,5.519435934484005
1176,Vertrijk,50.83594652922674,4.836594370794067
1672,Antwerpen-D.S.-Far-West,51.25592122727819,4.418219110094839
1110,Stoumont,50.41716574239091,5.769289559792316
979,Quaregnon,50.449728268340586,3.855599112085348
299,Kuregem-Doodspoor,50.83653458761067,4.319278792324128
885,Neufvilles-Garage,50.5460562377274,4.015352406771576
961,Philippeville,50.191612712480655,4.536051970925456
1248,Wondelgem,51.08898575456289,3.719596592718692
612,Jamioulx,50.35310475459701,4.411235098608796
318,Denderleeuw,50.891621170603955,4.071431566061722
263,Châtelet,50.41014315711594,4.521411822216678
649,Kortrijk,50.82441338246862,3.267774528680328
611,Jambes,50.45397911996434,4.875468217584368
146,Bertrix,49.85232574338336,5.268150158432898
342,Ecaussinnes,50.56236360511417,4.156673065283353
1223,Waver,50.71613796385702,4.605127669873097
220,Brussel-Zuid,50.83580082886068,4.336052466325346
1245,Willebroek,51.06641691397172,4.356072252256531
902,Neufvilles,50.543523197055165,4.010763312378273
1005,Roeselare,50.94934123119796,3.13023603832593
541,Heist-op-den-Berg,51.073554825164585,4.709356990822297
427,Froyennes,50.629514143330255,3.355483776176476
442,Gendron-Celles,50.210804056411945,4.964650876726329
984,Quiévrain,50.41023300761624,3.685859498851387
621,Jette,50.88120457651592,4.332923410788644
108,Balen-Werkplaatsen,51.204947001662255,5.245949995002284
1144,Tielen,51.240861461973786,4.893344963001603
973,Poperinge,50.85444837837162,2.736306432736006
1195,Wezet,50.74035513796187,5.692281362498214
400,Flawinne,50.456249957652616,4.806300471605369
1192,Vilvoorde,50.92414359820823,4.432813750239998
751,Londerzeel,51.00941362761383,4.296896133799565
708,Leopoldsburg,51.117330660425495,5.257878772958566
94,Antwerpen-D.S.-Ijsland,51.244267971582886,4.36627165740699
1665,Y.Oosterweel,51.258267645462105,4.389795323118787
1667,Y.Meestoof,51.28387058245853,4.330398128514664
1669,Y.Bayer,51.30106987138802,4.30862497721043
1683,Y.Oudendijk,51.338476224355425,4.284395448692243
1837,Meer-Grens,51.48573529811394,4.734469757425202
182,Antwerpen-Noord-Toegang A2,51.301402554320106,4.355189584168684
1728,Y.Herent,50.90271023479443,4.661004243725121
1584,Y.Noord Berchem,51.20148443784682,4.430169469210705
1591,Y.Oost Driehoek Aarschot,50.999299754945305,4.842520829607943
1614,Y.Stabroek,51.319372902593535,4.349464361667212
513,Hamont-Grens,51.247254951481494,5.555363738611365
1098,Stabroek-Rooster Q,51.329193062195316,4.349164251071486
1106,Sterpenich-Frontière,49.64385772621242,5.904200210842048
5,Y.Leuven-Bundel M,50.895622470202994,4.712462427638551
1352,Y.Albertbrug,50.8817480150151,4.385756213759398
1355,Y.Machelen-Noord,50.91861359152579,4.460842981414991
1180,Verviers-Paleis,50.59092927829129,5.865284693352242
219,Brussels Airport - Zaventem,50.89642423705851,4.48395784718869
921,Obourg-Marchandises,50.470021634500924,4.016410270720788
434,Gavere-Asper,50.930582049355856,3.639434052959724
477,Gouvy,50.18945222486348,5.953995903926271
784,Manage,50.50617164755824,4.23475247690034
78,Athus,49.563854762384,5.829224589508755
1151,Tongeren,50.78417812241077,5.473981817007522
382,Eupen,50.63530533532371,6.037148397876284
1506,Y.Berchem-Stadion,51.19273319087282,4.437897199862887
1507,Y.Berendrecht,51.322161074566786,4.349794459669396
362,Antwerpen-Noord-Bl.9-Rooster J,51.29184540938095,4.372103677493408
1429,Antwerpen-D.S.-BASF,51.373945558564735,4.265367358973248
1226,Welkenraedt,50.65937064749165,5.974267220223243
1061,Schulen,50.96418013482577,5.18542062549714
930,Oostende-Zeehaven,51.213211910508996,2.965668026598577
383,Evere,50.8682065685372,4.401355062293686
319,Dendermonde,51.022951980794005,4.101327011759538
875,Marchin,50.49649992481299,5.240216494038888
1212,Waregem,50.89242835003542,3.42559831780833
910,Ninove,50.83945938950777,4.026263271536687
19,Alken,50.886400235927916,5.291749444935051
1619,Gent-Zeehaven-Sifferdok,51.08244500154391,3.753352995505491
1622,Y.Sint-Mariaburg,51.29048753948213,4.435191721537423
1626,Y.Termien,50.94764630779817,5.483693433144579
1630,Y.Val-Benoit,50.6168620019169,5.581049994827988
233,Bilzen-Wijkspoor,50.87164775246125,5.509354730128338
51,Antwerpen-Noord-Blok 10,51.302701711226675,4.347193170220303
1806,Y.Kattestraat,51.21983759369294,4.302732102281937
1546,Y.Hever,50.99691903567283,4.539598190286946
131,Beez,50.471478484653304,4.925193163084237
1499,Y.Antwerpen-Oost,51.20595494466956,4.432882048023277
1500,Y.Antwerpen-Zuid,51.19562400157181,4.395211995296664
1513,Y.Boma,51.05957050497593,3.740254227195412
1514,Y.Boondaal,50.80998879139282,4.398612048978952
303,Stockem-Sud,49.690306101811316,5.772725032576064
917,Nossegem-Rooster C/D,50.887583634121505,4.520340106474117
1907,Antwerpen-Noord-Toegang 11L/1,51.29273268379331,4.393665394283456
1548,Y.Holsbeek,50.90961688317306,4.7193262426447
1553,Y.Jurbise,50.53649958402714,3.93996518979732
1392,Racc.Disteel,50.362777962791256,4.53410667902226
1396,Bakenbos,50.74828960306608,4.485838847393719
1406,Athus-Longeau,49.57182040308306,5.83265530037334
1408,Y.Eivoorde,51.288944794311426,3.237374559640314
1424,Zeebrugge-Sea-Ro Terminal,51.33289121534351,3.228563593910684
1432,Ronet-Gril R,50.45886807997806,4.830267842630082
1197,Y.Visé-Haut,50.74426997113866,5.694480854228674
1971,Y.Ketenis-West,51.275284580470306,4.279426525913609
2001,Vorst-HST-TO97XD,50.818695970525965,4.315840063099644
1582,Y.Noord Everstein,51.10910755255261,3.73039192069126
1587,Y.Noord Driehoek Hasselt,50.94071080659503,5.311996616906965
1599,Y.Pannenhuis,50.876149208242694,4.346420172335783
1600,Y.Parkbrug,50.86659187961168,4.715131399567942
339,Montzen-Gril N,50.72145747684508,5.950569027079984
516,Haacht-Wijkspoor,50.96428726510442,4.621727735484607
44,Y.Dudzele,51.262754818459136,3.202606843891626
2045,Kiewit Inrit,50.95346809533061,5.342432333008392
2050,Anderlecht-Rooster West,50.81815840956071,4.285686979625988
2051,Anderlecht-Rooster Oost,50.81774144600911,4.297072131443959
1459,Y.Arenberg,51.29192369947667,4.234915565305538
1519,Y.Bosdel,50.95422365680934,5.480117458073737
1524,Y.Dijlebrug,50.9067153034685,4.709143682591567
1637,Y.West Driehoek Hasselt,50.93812746621832,5.298148822393434
1643,Y.Zuid Driehoek Aarschot,50.99272621540015,4.829945523316381
1649,Y.Antoing,50.55839178842001,3.463377295624252
1658,Y.Keelbeek,50.89582649173329,4.424177088639995
1028,Remersdaal,50.740551310748636,5.888837160874892
1033,Saintes,50.710513713150604,4.154976048512056
1039,Y.Schaarbeek-Carwash,50.884726984918274,4.399619264987019
49,Antwerpen-Noord-Inrit C1,51.28763274075961,4.399541444727067
1273,Zolder-Kruissporen,51.03487464663944,5.317814120748603
1689,Oostende-T.W.,51.21597773940641,2.948865117890588
1469,Verb.Total,51.268653934967354,4.328345758676903
1477,Y.Spaans Fort,51.28055184218482,4.209542950525682
1481,Verb.ADPO,51.25343940533563,4.256111669196284
28,Oostende-Rooster C,51.21141850713778,2.973269368068938
1707,Y.Antwerpen-Schijnpoort,51.21714836805683,4.445919267026396
1718,Inrit Verb.Prayon-Rupel,51.082198228616065,4.344747107211291
1721,Y.Kruipin,51.251476369506065,4.25331094240012
1733,Y.Ringvaart,51.10500690187772,3.723387381182428
1735,Y.Flawinne,50.455208720380604,4.812381100034229
1736,Y.Luchthaven,50.887666137061075,4.488021792036403
1737,Y.Nossegem,50.88253385108323,4.499848789639142
1740,Y.Ottignies-Relais,50.68469596650864,4.570552882685487
2022,Willebroek - Bord Stop,51.06827944976583,4.34054858390874
2071,B.Krommenhoek-Uitrit J,51.29704391114363,4.252611603183899
1247,Genk-Goederen,50.99303002991661,5.468397683377944
376,Essen,51.46273699668126,4.451116949102328
451,Gent-Noord,51.16758992789417,3.825332028226358
384,Ezemaal,50.77212949781888,4.994219913271197
1927,Evergem-Inrit Bundel Zandeken,51.151126129789176,3.745454778551066
195,Boussu,50.43603991470513,3.79597174083758
496,Habay,49.7182543711221,5.632255946759036
1163,Ham,51.08429533941469,5.132012629422922
719,Leuze,50.60055276661659,3.616784177194411
557,Hermalle-sous-Huy,50.57190883954576,5.379497993919575
166,Blankenberge,51.31228295182011,3.133562308706298
698,Lauwe,50.7877911292868,3.202325904952008
127,Beernem,51.127984351343564,3.329867037752411
317,Deinze,50.9781328604359,3.535002801077202
329,Dinant,50.260730671818045,4.908199789924007
791,Marchienne-au-Pont,50.41221701003429,4.394312434115766
578,Holleken,50.767015163038835,4.354770803816823
1135,Theux,50.536285815623216,5.815107033380507
1011,Ronet-Vorming,50.453691688023895,4.823011898007539
942,Oostende-Bundel Plassendale 1,51.2218863271237,2.985455754547685
210,Brugge,51.19727306937378,3.216852878213191
1154,Doornik,50.615141816804844,3.388492484343276
1219,Watermaal,50.80971059066153,4.399853339445608
504,Halle,50.733060256649814,4.239823954453461
17,Aisemont,50.40437499360174,4.628815476182988
1722,Zeebrugge-Voorhaven-West,51.34056680141433,3.175833896670443
1484,De Panne-Doodspoor,51.076108828819784,2.555164001853353
70,Aarlen,49.679971210545986,5.810609705951418
1213,Borgworm,50.69469090868593,5.248963056690451
925,Olne,50.56639308394579,5.703133531852481
1177,Verviers-Centraal,50.587801914284064,5.854635277252846
706,Lembeek,50.71511214097718,4.221567770089727
281,Couillet,50.39264488205441,4.46933253671293
398,Feluy-Zoning,50.543297162800584,4.211304710907675
1296,Lanaken,50.88343851523077,5.660523082739664
840,Mol,51.19069542549062,5.114991873356337
614,Java,50.51387710977643,5.160698724076279
1752,Zeebrugge-Bundel N.I.D.,51.32827279733694,3.211860878713609
438,Gembloux,50.57124514484745,4.690630393213297
62,Antwerpen-D.S.-Oorderen,51.2829762224945,4.364428106902238
1825,Antwerpen-W.H.-B.Liefkenshoek,51.28034657850856,4.281664527927489
585,Hourpes,50.36371477510706,4.30877079907457
1271,Zeebrugge-Bundel Ramskapelle,51.314152620567285,3.237998160735442
1147,Tilff,50.57025703496445,5.582656168279681
1272,Zingem,50.90911962391627,3.646473939714823
1009,Ronet,50.457655320725806,4.828601683088753
489,Grupont,50.09050446184591,5.280534452223534
117,Schulen-Sas,50.963577095654976,5.188162889720117
82,Auvelais,50.449170411135086,4.63070038869451
6,Aalst,50.94312325212488,4.038683507111515
278,Komen,50.771963555146186,2.999344828949002
996,Rivage,50.48425613972251,5.586577136640217
1018,Roux,50.44308266140329,4.394000597539677
456,Gent-Zeehaven,51.06598100153959,3.742663995497723
1274,Zottegem,50.86909906459784,3.814701035934551
327,Diksmuide,51.032885050461196,2.869519746489205
79,Athus-Frontière,49.55178609552121,5.825007722048746
1755,Y.Harenheide,50.890665511063084,4.421672765666805
1764,Baulers-Gril D,50.6143175336358,4.349774440338706
1766,Y.Val-Saint-Lambert,50.59776460410352,5.485150494780058
1770,Schaarbeek-Toeg.Vorming-L26A,50.893715001681215,4.402877995265151
226,Brussel-Klein-Eiland,50.82555183762428,4.320397636670494
564,Heverlee-Rooster K/L,50.86292878775732,4.701851395941239
