route,train,station,latitude,longitude
IC 01,545,Gent-Sint-Pieters,51.03551971701421,3.710101315832923
L B1-2,1996,Vilvoorde,50.92414359820823,4.432813750239998
L B1-2,1995,Luttre,50.50601206060288,4.384250449864734
IC 01,545,Drongen,51.047503146402754,3.653586159319735
IC 01,522,Tienen,50.8079314339937,4.925636678946889
L B1-2,1996,Machelen,50.90596642069302,4.421043048845224
L B1-2,1996,Schaarbeek-Perron P.C.I.,50.90161855777666,4.414710414550336
IC 01,545,Landegem,51.06421597718289,3.57704576219589
IC 01,545,Hansbeke,51.07270818510425,3.537446874067181
L B1-2,1995,Courcelles-Motte,50.46202986102244,4.400412086453594
IC 01,545,Bellem,51.08372389725801,3.487287359353551
IC 01,522,Ezemaal,50.77212949781888,4.994219913271197
IC 01,522,Neerwinden,50.76376087904074,5.036335028170957
L B1-2,1996,Schaarbeek,50.87869266989909,4.378431524039678
IC 01,545,Aalter,51.09225779139449,3.447855382940146
L B1-2,1995,Roux,50.44308266140329,4.394000597539677
IC 01,545,Maria-Aalter,51.10757473497731,3.386700586663826
IC 01,545,Beernem,51.127984351343564,3.329867037752411
IC 01,522,Landen,50.7478945465236,5.079627434738533
L B1-2,1996,Thurn en Taxis,50.87155655999172,4.340863745355737
L B1-2,1995,Marchienne-au-Pont,50.41221701003429,4.394312434115766
L B1-2,1996,Simonis,50.86599657853117,4.334138582968338
L B1-2,1996,Brussel-West,50.85205607050756,4.322817267052568
IC 01,545,Oostkamp,51.15421490987769,3.257626153621203
IC 01,522,Borgworm,50.69469090868593,5.248963056690451
IC 01,545,Brugge,51.19727306937378,3.216852878213191
IC 01,522,Bleret,50.685313301749794,5.286061064312441
IC 01,522,Remicourt,50.67864345114512,5.321422014482167
IC 01,522,Momalle,50.6699148465472,5.367599886549959
IC 01,522,Fexhe-le-Haut-Clocher,50.66429943408551,5.397266517996256
IC 01,522,Voroux,50.6606950187532,5.431053889364091
IC 01,522,Bierset-Awans,50.65843789782589,5.460786562650455
IC 01,522,Ans,50.66119033371017,5.509696653841267
IC 06-2,3703,Brussel-Zuid,50.83580082886068,4.336052466325346
IC 03,1503,Brugge,51.19727306937378,3.216852878213191
IC 04-1,726,Poperinge,50.85444837837162,2.736306432736006
IC 06-2,3703,Brussel-West,50.85205607050756,4.322817267052568
IC 06-2,3703,Simonis,50.86599657853117,4.334138582968338
IC 06-2,3703,Thurn en Taxis,50.87155655999172,4.340863745355737
IC 03,1503,Oostkamp,51.15421490987769,3.257626153621203
IC 03,1503,Beernem,51.127984351343564,3.329867037752411
IC 04-1,726,Ieper,50.847477690810365,2.876886293135154
IC 06-2,3703,Schaarbeek,50.87869266989909,4.378431524039678
IC 03,1503,Maria-Aalter,51.10757473497731,3.386700586663826
IC 12,404,Kortrijk,50.82441338246862,3.267774528680328
IC 18,2426,Liers-Faisceau,50.69978530450907,5.558491077982493
IC 06-2,3704,Bergen,50.454436770348934,3.942380575452241
L B8-1,3976,Namen,50.46920536707373,4.862754782172303
L 02,553,Gent-Sint-Pieters,51.03551971701421,3.710101315832923
IC 03,1503,Aalter,51.09225779139449,3.447855382940146
IC 18,2426,Liers,50.69817964040005,5.566911104405785
IC 03,1503,Bellem,51.08372389725801,3.487287359353551
IC 06-2,3704,Ghlin,50.487523509938555,3.90639438934079
IC 12,404,Harelbeke,50.85629094542211,3.314655510959286
IC 04-1,726,Komen,50.771963555146186,2.999344828949002
L B1-2,1954,Charleroi-Centraal,50.40419960613283,4.438439317373349
L B6,1553,Geraardsbergen,50.770949248522925,3.872417489184951
L B8-1,3976,Rhisnes-Sas,50.50059749700802,4.799814589897698
L B8-1,3976,Rhisnes,50.4993004915618,4.801803854068583
L B8-1,3976,Saint-Denis-Bovesse,50.521297001857974,4.767791995102788
IC 06-2,3704,Erbisoeul,50.5078636253228,3.888447711073647
L 15,5576,Rochefort-Jemelle,50.16041579741265,5.266796362528351
IC 18,2426,Milmort,50.69342290621258,5.599557700763655
IC 03,1503,Hansbeke,51.07270818510425,3.537446874067181
L B8-1,3976,Beuzet,50.532974982431014,4.750194075854363
IC 04-1,725,Gent-Sint-Pieters,51.03551971701421,3.710101315832923
L 02,553,Merelbeke,51.020057593681734,3.764835020911601
IC 03,1527,Hasselt,50.93094539063631,5.326071324066093
L B8-1,3976,Lonzée,50.55197706629923,4.720151428541858
IC 06-2,3704,Jurbeke,50.530554529567226,3.91061322221787
IC 03,1503,Landegem,51.06421597718289,3.57704576219589
IC 04-1,726,Wervik,50.781855330951956,3.046976838293909
IC 12,404,Waregem,50.89242835003542,3.42559831780833
IC 04-1,725,Gentbrugge-Perron C.W.,51.029577695344535,3.752448334641758
IC 23-2,2804,Brugge,51.19727306937378,3.216852878213191
L B1-2,1954,Marchienne-au-Pont,50.41221701003429,4.394312434115766
IC 18,2426,Herstal,50.66038889612703,5.622362799581048
L B6,1553,Viane-Moerbeke,50.751952939919235,3.917163280042836
IC 03,1503,Drongen,51.047503146402754,3.653586159319735
IC 04-1,725,Gentbrugge,51.03878033373764,3.756083021687756
L 02,553,Melle,51.002749921068165,3.796939037051605
IC 06-2,3704,Masnuy-Saint-Pierre,50.536335796446835,3.962143546959787
L B8-1,3976,Gembloux,50.57124514484745,4.690630393213297
L 02,554,Brugge,51.19727306937378,3.216852878213191
L B3,2254,Oudenaarde,50.85060234685959,3.600671251569412
L B6,1553,Galmaarden,50.74402497456338,3.964956486506644
L B1-2,1954,Roux,50.44308266140329,4.394000597539677
IC 06-2,3704,Neufvilles-Garage,50.5460562377274,4.015352406771576
IC 03,1527,Alken,50.886400235927916,5.291749444935051
IC 06-2,3704,Neufvilles,50.543523197055165,4.010763312378273
L 15,5576,Marloie,50.20321569506066,5.314305549244098
IC 04-1,726,Menen,50.79946001891374,3.113887199330697
IC 23-2,2804,Oostkamp,51.15421490987769,3.257626153621203
IC 29,3628,Landen,50.7478945465236,5.079627434738533
L 02,553,Kwatrecht,50.99155010054474,3.833335262496046
IC 04-1,725,Gent-Dampoort,51.056728987048956,3.740515250330524
IC 23-2,2803,Brussel-Zuid,50.83580082886068,4.336052466325346
IC 08,2626,Hasselt,50.93094539063631,5.326071324066093
L B8-1,3976,Ernage,50.592425164448926,4.667147778258966
L B6,1576,Schaarbeek,50.87869266989909,4.378431524039678
L B8-1,3976,Chastre,50.60757597085545,4.65013041163728
IC 01,527,Luik-Guillemins,50.62555824033023,5.565379651677738
IC 04-1,704,Antwerpen-Centraal,51.216862033537794,4.421083629947415
IC 25,3804,Bergen,50.454436770348934,3.942380575452241
L B6,1553,Tollembeek,50.73542702057838,3.992881040231503
L B1-2,1954,Courcelles-Motte,50.46202986102244,4.400412086453594
L B1-2,1953,Brussel-Zuid,50.83580082886068,4.336052466325346
L B8-1,3976,Blanmont,50.6195230216506,4.636686921998361
IC 23-2,2804,Beernem,51.127984351343564,3.329867037752411
IC 23-2,2803,Brussel-Kapellekerk,50.841176483587425,4.347842850133666
L 15,5576,Marche-en-Famenne,50.222535392854475,5.34617844744314
IC 12,404,Deinze,50.9781328604359,3.535002801077202
IC 18,2426,Luik-Sint-Lambertus,50.64694935205776,5.57261263700804
IC 03,1503,Gent-Sint-Pieters,51.03551971701421,3.710101315832923
L B1-1,1776,Antwerpen-Centraal,51.216862033537794,4.421083629947415
L B8-1,3976,Mont-Saint-Guibert,50.63829834924627,4.61270934638381
IC 06-2,3704,Zinnik,50.57312318221692,4.069352245033392
L 02,553,Wetteren,51.00149929084834,3.881915592818523
IC 29,3628,Neerwinden,50.76376087904074,5.036335028170957
IC 12,404,Deinze-Wijksporen,50.9790461798649,3.540645659081197
IC 25,3804,Nimy,50.47176943541776,3.95653982987247
IC 04-1,726,Wevelgem,50.81106670481992,3.182483664800671
L 02,554,Oostkamp,51.15421490987769,3.257626153621203
IC 23-2,2804,Maria-Aalter,51.10757473497731,3.386700586663826
L B1-2,1953,Brussel-Kapellekerk,50.841176483587425,4.347842850133666
L B6,1553,Herne,50.72369800894415,4.014372844199131
L B3,2254,Sint-Denijs-Boekel,50.874198889945404,3.698421279546744
IC 20,2204,Gent-Sint-Pieters,51.03551971701421,3.710101315832923
IC 15,4925,Hasselt,50.93094539063631,5.326071324066093
IC 23-2,2803,Brussel-Centraal,50.84531101978561,4.35675831766839
L B2-1,3676,Leuven,50.88136571115078,4.716208512981546
IC 01,504,Oostende,51.22794248315333,2.926625863197556
IC 23-2,2803,Brussel-Congres,50.85178018311057,4.362219760072247
IC 04-1,704,Antwerpen-Berchem,51.1988702961587,4.432979473543215
L B6,1576,Brussel-Noord,50.85959959838314,4.361252318634824
IC 18,2426,Luik-Carré,50.64016117047732,5.561580820714428
L B1-2,1953,Brussel-Centraal,50.84531101978561,4.35675831766839
L B3,2254,Munkzwalm,50.875656666067506,3.731514205002289
IC 08,2626,Schulen-Sas,50.963577095654976,5.188162889720117
IC 08,2626,Schulen,50.96418013482577,5.18542062549714
IC 04-1,725,Beervelde,51.087172443782855,3.879980395685934
IC 25,3804,Obourg-Marchandises,50.470021634500924,4.016410270720788
IC 25,3804,Obourg,50.46980723102854,4.006727859438542
IC 25,3825,Charleroi-Centraal,50.40419960613283,4.438439317373349
IC 03,1527,Sint-Truiden,50.81768876585601,5.176520546000151
L B6,1576,Brussel-Congres,50.85178018311057,4.362219760072247
IC 06-1,1904,Doornik,50.615141816804844,3.388492484343276
L B1-1,1776,Antwerpen-Berchem,51.1988702961587,4.432979473543215
L B1-2,1954,Luttre,50.50601206060288,4.384250449864734
L B1-2,1953,Brussel-Congres,50.85178018311057,4.362219760072247
IC 29,3628,Ezemaal,50.77212949781888,4.994219913271197
L 02,553,Schellebelle,51.00312616442199,3.92143307788236
IC 12,404,De Pinte,50.998952524822585,3.655383901672195
IC 01,527,Ans,50.66119033371017,5.509696653841267
IC 25,3804,Havré,50.47086130374264,4.058356446670643
L 02,554,Beernem,51.127984351343564,3.329867037752411
IC 23-2,2804,Aalter,51.09225779139449,3.447855382940146
IC 04-1,726,Bissegem,50.82579327658622,3.224088411817595
IC 04-1,704,Antwerpen-Zuid,51.19721428415948,4.391779006927757
L 15,5576,Melreux-Hotton,50.283600345297494,5.440352546498348
IC 25,3804,Thieu,50.46967181239604,4.098467909523017
L B6,1576,Brussel-Centraal,50.84531101978561,4.35675831766839
L B6,1553,Edingen,50.69722134520999,4.047260476616265
IC 20,2204,Merelbeke,51.020057593681734,3.764835020911601
L B2-1,3676,Herent,50.90358929255643,4.672141055672479
IC 23-2,2804,Bellem,51.08372389725801,3.487287359353551
L 02,553,Wichelen,51.001758503990175,3.974883903141969
IC 25,3804,Bracquegnies,50.47436212331982,4.126350513636451
IC 23-2,2803,Brussel-Noord,50.85959959838314,4.361252318634824
IC 06-2,3704,'s-Gravenbrakel,50.60484523104407,4.138162426655214
L B6,1576,Brussel-Kapellekerk,50.841176483587425,4.347842850133666
L B1-1,1776,Mortsel,51.18289070974223,4.448811507867791
L B8-1,3976,Ottignies,50.671773574303224,4.570373990520092
L B1-2,1954,Obaix-Buzet,50.53576499907677,4.363632083286799
IC 15,4925,Schulen-Sas,50.963577095654976,5.188162889720117
IC 01,527,Bierset-Awans,50.65843789782589,5.460786562650455
IC 23-2,2804,Hansbeke,51.07270818510425,3.537446874067181
L 02,554,Maria-Aalter,51.10757473497731,3.386700586663826
IC 04-1,725,Lokeren,51.1070280724398,3.985383235145282
IC 06-1,1904,Havinnes,50.61882981688033,3.49566068071467
IC 25,3825,Marchienne-au-Pont,50.41221701003429,4.394312434115766
L B1-2,1953,Brussel-Noord,50.85959959838314,4.361252318634824
IC 08,2604,Antwerpen-Centraal,51.216862033537794,4.421083629947415
IC 07,2003,Brussel-Zuid,50.83580082886068,4.336052466325346
IC 15,4925,Schulen,50.96418013482577,5.18542062549714
L 02,553,Schoonaarde,51.003138571181125,4.011262908092702
L 04,4654,Bergen,50.454436770348934,3.942380575452241
IC 01,527,Voroux,50.6606950187532,5.431053889364091
IC 04-1,704,Zwijndrecht,51.213640244311954,4.324671903684774
L B2-1,3676,Veltem,50.90055001720875,4.633517445095211
IC 23-2,2803,Schaarbeek,50.87869266989909,4.378431524039678
IC 08,2626,Diest,50.99342002336958,5.050066472491223
IC 18,2426,Luik-Guillemins,50.62555824033023,5.565379651677738
IC 14,1704,Bergen,50.454436770348934,3.942380575452241
IC 07,2003,Brussel-Kapellekerk,50.841176483587425,4.347842850133666
L B3,2254,Zottegem,50.86909906459784,3.814701035934551
IC 01,527,Fexhe-le-Haut-Clocher,50.66429943408551,5.397266517996256
IC 06-2,3704,Hennuyères,50.65091444999998,4.176132141679284
IC 06-2,3704,Hennuyères-Garage,50.6479509231809,4.173327027471045
L B1-1,1776,Mortsel-Liersesteenweg,51.169548577434576,4.469151255029592
IC 06-1,1903,Brussel-Zuid,50.83580082886068,4.336052466325346
IC 20,2204,Melle,51.002749921068165,3.796939037051605
IC 28,3027,De Panne,51.07726613110537,2.602401090227277
IC 29,3628,Tienen,50.8079314339937,4.925636678946889
IC 23-2,2804,Landegem,51.06421597718289,3.57704576219589
IC 25,3804,La Louvière-Zuid,50.464993656778184,4.19010515835262
IC 01,527,Momalle,50.6699148465472,5.367599886549959
IC 04-1,725,Lokeren-Oost,51.10977280180321,3.991494840923161
L 15,5576,Barvaux,50.349504130012015,5.502270043642818
IC 04-1,704,Melsele,51.21082656268172,4.288506223071698
IC 01,527,Remicourt,50.67864345114512,5.321422014482167
IC 06-1,1903,Brussel-Kapellekerk,50.841176483587425,4.347842850133666
L B8-1,3976,Profondsart,50.69384598089478,4.549496108321164
IC 06-2,3704,Tubeke,50.69169220545364,4.20581147629095
L B6,1576,Brussel-Zuid,50.83580082886068,4.336052466325346
IC 18,2426,Sclessin,50.61036517564539,5.55669507871075
L B1-2,1953,Schaarbeek,50.87869266989909,4.378431524039678
IC 18,2426,Tilleur,50.619325790518765,5.52959613022457
IC 08,2626,Zichem,51.006658165424646,4.987321399197209
IC 07,2003,Brussel-Centraal,50.84531101978561,4.35675831766839
IC 20,2204,Kwatrecht,50.99155010054474,3.833335262496046
IC 08,2604,Antwerpen-Berchem,51.1988702961587,4.432979473543215
L B2-1,3676,Erps-Kwerps,50.89654505809275,4.584930600736926
IC 04-1,725,Sinaai,51.143500701126385,4.068856389093756
L 13-2,5975,Bertrix,49.85232574338336,5.268150158432898
IC 04-1,704,Beveren(Waas),51.208473876872844,4.260777895162216
L 02,553,Oudegem,51.014737627992446,4.062437122289404
IC 01,527,Bleret,50.685313301749794,5.286061064312441
L 02,554,Aalter,51.09225779139449,3.447855382940146
IC 23-2,2804,Drongen,51.047503146402754,3.653586159319735
IC 05,4526,Antwerpen-Centraal,51.216862033537794,4.421083629947415
IC 14,1727,Luik-Guillemins,50.62555824033023,5.565379651677738
IC 06-2,3704,Lembeek,50.71511214097718,4.221567770089727
IC 25,3825,Forchies,50.433128757386235,4.323472828215522
IC 03,1527,Landen,50.7478945465236,5.079627434738533
L B8-1,3976,Rixensart,50.71351481096948,4.530823605161436
IC 03,1525,Brugge,51.19727306937378,3.216852878213191
L B1-1,1776,Hove,51.15406191789155,4.465214254147384
IC 23-1,2326,Kortrijk,50.82441338246862,3.267774528680328
IC 14,1704,Ghlin,50.487523509938555,3.90639438934079
IC 07,2003,Brussel-Congres,50.85178018311057,4.362219760072247
L B3,2254,Hillegem,50.89129484430886,3.857476893082532
IC 18,2426,Pont-de-Seraing,50.619916699168094,5.511349156465087
IC 08,2626,Testelt,51.009863921942355,4.945833786595188
IC 15,4925,Diest,50.99342002336958,5.050066472491223
IC 25,3804,Morlanwelz,50.45819475895926,4.247606842005881
IC 04-1,725,Belsele,51.15105293420193,4.088971325808107
L 04,4654,Jemappes,50.45256323711496,3.885169785310784
IC 12,404,Gent-Sint-Pieters,51.03551971701421,3.710101315832923
L B2-1,3676,Kortenberg-Goederen,50.893766016593474,4.552069735832903
IC 25,3804,Carnières,50.44790381004631,4.264406625278332
L A4-2,2675,Lokeren,51.1070280724398,3.985383235145282
L B6,1576,Vorst-Zuid,50.810073408172734,4.310347515402428
IC 06-1,1904,Leuze,50.60055276661659,3.616784177194411
IC 06-1,1903,Brussel-Centraal,50.84531101978561,4.35675831766839
IC 06-2,3704,Halle,50.733060256649814,4.239823954453461
IC 25,3825,Piéton,50.43511682114374,4.286129350500978
L 03,2475,Hasselt,50.93094539063631,5.326071324066093
IC 28,3027,Koksijde,51.078708344787216,2.654140285486822
IC 08,2604,Mortsel-Deurnesteenweg,51.18231715581698,4.447187644772542
IC 18,2426,Jemeppe-sur-Meuse,50.61841627390551,5.497799707765852
L B1-2,1954,Nijvel,50.6004932591792,4.335288481441468
L S63-2,19825,Erquelinnes,50.30411129311053,4.113617375776282
IC 08,2604,Mortsel-Oude God,51.171808099384776,4.455388660748518
IC 18,2426,Flémalle-Grande,50.6052596351082,5.481089013737427
L B1-2,1953,Buda,50.90808941401188,4.417587678075591
IC 14,1704,Erbisoeul,50.5078636253228,3.888447711073647
IC 18,2426,Leman,50.59896972583936,5.465658900379582
IC 04-1,704,Nieuwkerken-Waas,51.18508212954049,4.184439116403614
L 02,554,Bellem,51.08372389725801,3.487287359353551
IC 01,527,Borgworm,50.69469090868593,5.248963056690451
L 23,2876,Leuven,50.88136571115078,4.716208512981546
L 15,5576,Bomal,50.376893421466065,5.519435934484005
L B6,1576,Ruisbroek,50.79177235834205,4.295521156543186
IC 17,2526,Dinant,50.260730671818045,4.908199789924007
L B8-1,3976,Genval,50.726467561824926,4.513841930930245
IC 25,3825,Carnières,50.44790381004631,4.264406625278332
IC 03,1527,Neerwinden,50.76376087904074,5.036335028170957
IC 03,1525,Brugge-Sint-Pieters,51.22266043095538,3.201678747582974
IC 06-1,1903,Brussel-Congres,50.85178018311057,4.362219760072247
L B3,2254,Herzele,50.89692470109805,3.879519908406242
IC 11,3427,Turnhout,51.32327000158529,4.938189995120822
IC 20,2204,Wetteren,51.00149929084834,3.881915592818523
IC 08,2604,Hove,51.15406191789155,4.465214254147384
IC 08,2626,Langdorp,51.00246923181287,4.863538493784459
L B6,1553,Halle,50.733060256649814,4.239823954453461
L 23,2854,Antwerpen-Centraal,51.216862033537794,4.421083629947415
L 29,4875,Aat,50.627030183302196,3.776393685659921
IC 04-1,704,Sint-Niklaas-Oost,51.176623377622434,4.159519894481113
IC 15,4925,Zichem,51.006658165424646,4.987321399197209
L B2-1,3676,Kortenberg,50.89300415046401,4.543312926825426
IC 29,3628,Vertrijk,50.83594652922674,4.836594370794067
IC 10,4325,Mol,51.19069542549062,5.114991873356337
IC 25,3804,Piéton,50.43511682114374,4.286129350500978
IC 01,504,Brugge,51.19727306937378,3.216852878213191
L 04,4654,Quaregnon,50.449728268340586,3.855599112085348
IC 04-1,726,Kortrijk,50.82441338246862,3.267774528680328
IC 05,4526,Antwerpen-Berchem,51.1988702961587,4.432979473543215
L B1-1,1776,Kontich-Lint,51.13368368793974,4.47689680687504
L B6,1576,Lot,50.765128381018265,4.272571084560079
IC 25,3825,Morlanwelz,50.45819475895926,4.247606842005881
IC 03,1527,Ezemaal,50.77212949781888,4.994219913271197
L A4-2,2675,Lokeren-Oost,51.10977280180321,3.991494840923161
L S63-2,19825,Erquelinnes-Dorp,50.30970783724065,4.130141061496101
IC 08,2604,Kontich-Lint,51.13368368793974,4.47689680687504
L B1-2,1953,Vilvoorde,50.92414359820823,4.432813750239998
L B3,2254,Terhagen,50.90182412616037,3.897482385381147
L B6,1553,Buizingen,50.75154826326621,4.258657550563639
IC 18,2426,Flémalle-Haute,50.59463893442038,5.456315954565175
IC 14,1704,Jurbeke,50.530554529567226,3.91061322221787
L 02,553,Dendermonde,51.022951980794005,4.101327011759538
IC 15,4925,Testelt,51.009863921942355,4.945833786595188
L B8-1,3955,Oudenaarde,50.85060234685959,3.600671251569412
IC 23-2,2804,Gent-Sint-Pieters,51.03551971701421,3.710101315832923
IC 25,3804,Forchies,50.433128757386235,4.323472828215522
IC 04-1,725,Sint-Niklaas,51.17159935285642,4.143282196338587
L B6,1576,Buizingen,50.75154826326621,4.258657550563639
L B8-1,3976,Terhulpen,50.73811044447185,4.497448352714626
IC 28,3027,Veurne,51.07391661820733,2.669750487403637
L B6,1553,Lot,50.765128381018265,4.272571084560079
IC 08,2604,Sint-Katelijne-Waver,51.07092770112268,4.495807348133646
IC 08,2604,Duffel,51.091684329214274,4.492767295335319
IC 20,2204,Schellebelle,51.00312616442199,3.92143307788236
IC 05,4526,Mortsel-Deurnesteenweg,51.18231715581698,4.447187644772542
L 15,5576,Sy,50.40330835945356,5.523618360082942
L 02,554,Hansbeke,51.07270818510425,3.537446874067181
L B2-1,3676,Nossegem,50.88344233385105,4.506060556822931
IC 04-1,726,Harelbeke,50.85629094542211,3.314655510959286
IC 05,4526,Mortsel-Oude God,51.171808099384776,4.455388660748518
IC 04-1,725,Sint-Niklaas-Oost,51.176623377622434,4.159519894481113
IC 04-1,704,Sint-Niklaas,51.17159935285642,4.143282196338587
IC 01,504,Oostkamp,51.15421490987769,3.257626153621203
L 02,576,Dendermonde,51.022951980794005,4.101327011759538
L A4-2,2675,Sinaai,51.143500701126385,4.068856389093756
IC 08,2626,Aarschot,50.98449635540834,4.823698347886938
IC 07,2003,Brussel-Noord,50.85959959838314,4.361252318634824
L S63-2,19825,Solre-sur-Sambre,50.312755390346254,4.158287829673784
L B1-2,1954,Lillois,50.64367353246769,4.363394702678375
L B6,1553,Ruisbroek,50.79177235834205,4.295521156543186
IC 14,1704,Masnuy-Saint-Pierre,50.536335796446835,3.962143546959787
IC 18,2426,Engis,50.58266006063994,5.402218863560586
L B3,2254,Burst,50.90690477967195,3.920956497963406
IC 20,2204,Serskamp,50.98453800875389,3.959538984169734
IC 08,2604,Mechelen-Nekkerspoel,51.030011706650285,4.490206757525486
L 01,4954,Hoei,50.527376421412576,5.234037173214917
IC 04-1,725,Nieuwkerken-Waas,51.18508212954049,4.184439116403614
IC 15,4925,Langdorp,51.00246923181287,4.863538493784459
IC 05,4526,Hove,51.15406191789155,4.465214254147384
L 29,4875,Rebaix,50.66104886044587,3.793534075384883
IC 14,1727,Ans,50.66119033371017,5.509696653841267
L B8-1,3976,Hoeilaart,50.76018324853293,4.467428762947364
L A4-2,2675,Belsele,51.15105293420193,4.088971325808107
L B6,1576,Halle,50.733060256649814,4.239823954453461
IC 06-1,1903,Brussel-Noord,50.85959959838314,4.361252318634824
L B1-1,1776,Duffel,51.091684329214274,4.492767295335319
L 03,2475,Schulen-Sas,50.963577095654976,5.188162889720117
L B6,1553,Vorst-Zuid,50.810073408172734,4.310347515402428
IC 03,1503,Anderlecht,50.817918890620895,4.29153935389493
IC 01,504,Beernem,51.127984351343564,3.329867037752411
L 04,4654,Saint-Ghislain,50.44273476444009,3.820015769849533
L 23,2854,Antwerpen-Berchem,51.1988702961587,4.432979473543215
IC 05,4526,Kontich-Lint,51.13368368793974,4.47689680687504
L 02,553,Baasrode-Zuid,51.01938772431604,4.15401461327405
L 02,554,Landegem,51.06421597718289,3.57704576219589
L 15,5576,Hamoir,50.42832918725482,5.533840033385975
L 23,2876,Wezemaal,50.95636089869388,4.748012297469645
IC 25,3804,Marchienne-au-Pont,50.41221701003429,4.394312434115766
L B2-1,3676,Zaventem,50.885632548337114,4.469909600155111
L G2,1875,Geraardsbergen,50.770949248522925,3.872417489184951
IC 25,3826,Namen,50.46920536707373,4.862754782172303
IC 25,3825,La Louvière-Zuid,50.464993656778184,4.19010515835262
IC 17,2526,Yvoir,50.32085000245575,4.878760881433763
L B8-1,3976,Groenendaal,50.766147386895206,4.44935705453385
IC 14,1704,Neufvilles-Garage,50.5460562377274,4.015352406771576
L B1-2,1953,Eppegem,50.95840721352074,4.457499467095007
L B1-2,1977,Antwerpen-Centraal,51.216862033537794,4.421083629947415
IC 18,2426,Hermalle-sous-Huy,50.57190883954576,5.379497993919575
IC 14,1704,Neufvilles,50.543523197055165,4.010763312378273
L S63-2,19825,Labuissière,50.316274429666755,4.186533133296718
IC 07,2003,Schaarbeek,50.87869266989909,4.378431524039678
IC 08,2626,Wezemaal,50.95636089869388,4.748012297469645
IC 20,2204,Lede,50.970970941375874,3.985076835022102
IC 11,3427,Tielen,51.240861461973786,4.893344963001603
L B8-1,3955,Sint-Denijs-Boekel,50.874198889945404,3.698421279546744
IC 23-2,2805,Knokke,51.339924821451284,3.285227675190857
L 02,576,Oudegem,51.014737627992446,4.062437122289404
IC 05,4526,Duffel,51.091684329214274,4.492767295335319
IC 04-1,704,Belsele,51.15105293420193,4.088971325808107
IC 04-1,704,Sinaai,51.143500701126385,4.068856389093756
IC 10,4325,Geel,51.169052549858385,4.989631494192635
IC 04-1,725,Beveren(Waas),51.208473876872844,4.260777895162216
L 27,2755,Leuven,50.88136571115078,4.716208512981546
IC 31,3126,Antwerpen-Centraal,51.216862033537794,4.421083629947415
IC 25,3827,Herstal,50.66038889612703,5.622362799581048
IC 23-1,2326,Ingelmunster,50.91484341700642,3.254708319352296
IC 03,1527,Tienen,50.8079314339937,4.925636678946889
IC 14,1727,Bierset-Awans,50.65843789782589,5.460786562650455
IC 02,1826,Antwerpen-Centraal,51.216862033537794,4.421083629947415
L 03,2475,Schulen,50.96418013482577,5.18542062549714
IC 06-1,1904,Aat,50.627030183302196,3.776393685659921
IC 03,1528,Genk,50.967071021620654,5.498086693151217
IC 18,2426,Haute-Flône,50.55424859743379,5.331294580631765
L B1-2,1954,Eigenbrakel,50.68475914261351,4.37582344502392
L B3,2254,Ede,50.91099162785289,3.987780754836433
L B10-1,2076,Aalst,50.94312325212488,4.038683507111515
L 29,4875,Papegem,50.687655087352056,3.824299419853787
L 02,553,Buggenhout,51.01631183819492,4.200760136726267
L 01,4954,Ampsin,50.53917375822986,5.288862316887595
IC 04-1,727,Poperinge,50.85444837837162,2.736306432736006
L 23,2854,Mortsel,51.18289070974223,4.448811507867791
IC 04-1,725,Melsele,51.21082656268172,4.288506223071698
IC 01,504,Maria-Aalter,51.10757473497731,3.386700586663826
L B10-2,3855,Dendermonde,51.022951980794005,4.101327011759538
IC 05,4526,Sint-Katelijne-Waver,51.07092770112268,4.495807348133646
IC 01,527,Landen,50.7478945465236,5.079627434738533
IC 15,4925,Begijnendijk,51.02202332433806,4.800439914572373
L 04,4654,Ville-Pommeroeul,50.464526837178994,3.724432978367793
L B2-1,3676,Diegem,50.89062008445345,4.441952580833079
IC 04-1,726,Waregem,50.89242835003542,3.42559831780833
L L1-1,5275,Verviers-Centraal,50.587801914284064,5.854635277252846
IC 29,3628,Leuven,50.88136571115078,4.716208512981546
IC 25,3826,Ronet,50.457655320725806,4.828601683088753
L B1-1,1776,Sint-Katelijne-Waver,51.07092770112268,4.495807348133646
IC 06-1,1903,Schaarbeek,50.87869266989909,4.378431524039678
IC 23-1,2326,Izegem-Sas,50.92120714692377,3.219680037338991
IC 07,2003,Buda,50.90808941401188,4.417587678075591
L B1-2,1953,Weerde,50.977243209834526,4.471087335301695
IC 18,2426,Amay,50.54592191603607,5.320609487870715
IC 03,1504,Brugge,51.19727306937378,3.216852878213191
IC 08,2604,Mechelen,51.01761866620954,4.483579828080118
L S63-2,19825,Fontaine-Valmont,50.32086424659956,4.211513539319487
IC 07,2003,Vilvoorde,50.92414359820823,4.432813750239998
IC 18,2426,Ampsin,50.53917375822986,5.288862316887595
IC 14,1704,Zinnik,50.57312318221692,4.069352245033392
L B8-1,3955,Munkzwalm,50.875656666067506,3.731514205002289
IC 15,4925,Booischot,51.037499464688636,4.772796366390144
IC 01,527,Neerwinden,50.76376087904074,5.036335028170957
IC 04-1,704,Lokeren-Oost,51.10977280180321,3.991494840923161
IC 05,4526,Mechelen-Nekkerspoel,51.030011706650285,4.490206757525486
IC 26,3204,Doornik,50.615141816804844,3.388492484343276
L B8-1,3976,Bosvoorde,50.79455788670699,4.408269528287142
IC 14,1727,Voroux,50.6606950187532,5.431053889364091
IC 06-2,3704,Brussel-Zuid,50.83580082886068,4.336052466325346
L A4-2,2675,Sint-Niklaas,51.17159935285642,4.143282196338587
IC 06-1,1903,Haren-Zuid,50.889616892134654,4.415076991166356
IC 23-1,2326,Izegem,50.92110934791895,3.21346951707641
IC 25,3825,Bracquegnies,50.47436212331982,4.126350513636451
IC 25,3826,Flawinne,50.456249957652616,4.806300471605369
IC 17,2526,Godinne,50.3488506246698,4.869974117956068
IC 14,1727,Fexhe-le-Haut-Clocher,50.66429943408551,5.397266517996256
L B6,1553,Brussel-Zuid,50.83580082886068,4.336052466325346
L B3,2254,Haaltert,50.907066641303196,4.021716617534101
L B1-2,1977,Antwerpen-Berchem,51.1988702961587,4.432979473543215
L 02,576,Schoonaarde,51.003138571181125,4.011262908092702
L B10-2,3855,Sint-Gillis(Dendermonde),51.02208185742186,4.117208570505743
IC 01,504,Aalter,51.09225779139449,3.447855382940146
L 02,553,Malderen,51.01428356975301,4.231399792037534
IC 23-2,2805,Duinbergen,51.338271911609404,3.26293506332294
L 04,4654,Harchies,50.48205917063363,3.699302076649094
IC 04-1,725,Zwijndrecht,51.213640244311954,4.324671903684774
L 15,5576,Comblain-la-Tour,50.45662378972361,5.567151863844289
L 02,554,Drongen,51.047503146402754,3.653586159319735
L 01,4954,Amay,50.54592191603607,5.320609487870715
L G1,776,Eeklo,51.18061569885919,3.575419009227249
L 01,4976,Luik-Guillemins,50.62555824033023,5.565379651677738
L 29,4875,Houraing,50.702881501429985,3.835231437708677
L B2-1,3676,Haren-Zuid,50.889616892134654,4.415076991166356
IC 29,3628,Herent,50.90358929255643,4.672141055672479
L 23,2876,Aarschot,50.98449635540834,4.823698347886938
IC 01,504,Bellem,51.08372389725801,3.487287359353551
IC 01,527,Ezemaal,50.77212949781888,4.994219913271197
IC 25,3825,Thieu,50.46967181239604,4.098467909523017
IC 06-2,3704,Brussel-Kapellekerk,50.841176483587425,4.347842850133666
IC 31,3126,Antwerpen-Berchem,51.1988702961587,4.432979473543215
L A4-2,2675,Sint-Niklaas-Oost,51.176623377622434,4.159519894481113
IC 03,1527,Vertrijk,50.83594652922674,4.836594370794067
L B8-1,3976,Watermaal,50.80971059066153,4.399853339445608
L 27,2755,Wijgmaal,50.9233034469938,4.700698413816125
IC 14,1727,Momalle,50.6699148465472,5.367599886549959
L S63-2,19825,Lobbes-Garage,50.3468040847804,4.257260015531566
IC 20,2227,Hasselt,50.93094539063631,5.326071324066093
L B1-2,1954,Waterloo,50.715533973277154,4.383453531843166
IC 03,1503,Brussel-Zuid,50.83580082886068,4.336052466325346
L B10-1,2076,Erembodegem,50.91929248249657,4.055478044299816
IC 07,2003,Eppegem,50.95840721352074,4.457499467095007
L B6,1553,Brussel-Kapellekerk,50.841176483587425,4.347842850133666
IC 07,2003,Weerde,50.977243209834526,4.471087335301695
L 23,2854,Boechout,51.16382800159388,4.49404699525959
IC 10,4325,Olen,51.17402976913898,4.902499251852356
IC 29,3603,Gent-Sint-Pieters,51.03551971701421,3.710101315832923
IC 04-1,704,Lokeren,51.1070280724398,3.985383235145282
L B10-2,3855,Lebbeke,51.00475356147399,4.134881157174673
IC 02,1826,Antwerpen-Berchem,51.1988702961587,4.432979473543215
IC 23-1,2303,Kortrijk,50.82441338246862,3.267774528680328
IC 25,3825,Havré,50.47086130374264,4.058356446670643
L G2,1875,Lierde,50.81658982280488,3.825714387767464
IC 25,3826,Floreffe,50.44348110262792,4.762999763962485
IC 14,1727,Remicourt,50.67864345114512,5.321422014482167
IC 25,3827,Luik-Sint-Lambertus,50.64694935205776,5.57261263700804
IC 23-1,2328,Brussels Airport - Zaventem,50.89642423705851,4.48395784718869
L B1-1,1776,Mechelen-Nekkerspoel,51.030011706650285,4.490206757525486
L A4-2,2675,Nieuwkerken-Waas,51.18508212954049,4.184439116403614
IC 31,3126,Mortsel-Deurnesteenweg,51.18231715581698,4.447187644772542
IC 06-1,1926,Brussel-Zuid,50.83580082886068,4.336052466325346
IC 20,2204,Aalst,50.94312325212488,4.038683507111515
IC 03,1503,Brussel-Kapellekerk,50.841176483587425,4.347842850133666
IC 14,1705,Quiévrain,50.41023300761624,3.685859498851387
IC 18,2426,Hoei,50.527376421412576,5.234037173214917
IC 03,1504,Oostkamp,51.15421490987769,3.257626153621203
IC 28,3027,Diksmuide,51.032885050461196,2.869519746489205
L B3,2254,Welle,50.90304992098791,4.05086651791031
L 02,576,Wichelen,51.001758503990175,3.974883903141969
L 10-1,6175,Rochefort-Jemelle,50.16041579741265,5.266796362528351
L 01,4954,Haute-Flône,50.55424859743379,5.331294580631765
IC 25,3804,Charleroi-Centraal,50.40419960613283,4.438439317373349
IC 15,4925,Heist-op-den-Berg,51.073554825164585,4.709356990822297
L 29,4875,Lessen,50.71290774870706,3.836861179155217
IC 01,504,Hansbeke,51.07270818510425,3.537446874067181
L 04,4654,Blaton,50.505954521715246,3.66570591977767
IC 23-2,2805,Heist,51.334177499078464,3.240489638663327
IC 29,3628,Veltem,50.90055001720875,4.633517445095211
IC 05,4526,Mechelen,51.01761866620954,4.483579828080118
IC 29,3628,Erps-Kwerps,50.89654505809275,4.584930600736926
L G1,776,Waarschoot,51.15444063936785,3.615186997305616
IC 04-1,725,Antwerpen-Zuid,51.19721428415948,4.391779006927757
L G1,755,Ronse,50.74236654443449,3.602611083047574
L L1-1,5275,Pepinster,50.56851509165158,5.810268537289398
L 01,4976,Sclessin,50.61036517564539,5.55669507871075
IC 14,1727,Bleret,50.685313301749794,5.286061064312441
IC 17,2526,Lustin,50.36974157323638,4.87748847850772
L B5-2,3555,Halle,50.733060256649814,4.239823954453461
IC 06-2,3704,Brussel-Centraal,50.84531101978561,4.35675831766839
IC 25,3826,Franière,50.439609337705065,4.733609958418976
IC 03,1528,Bokrijk,50.955795456999596,5.408576048052186
IC 25,3825,Obourg-Marchandises,50.470021634500924,4.016410270720788
L B6,1553,Brussel-Centraal,50.84531101978561,4.35675831766839
L B1-2,1954,De Hoek,50.73924115834706,4.370342368877128
L S63-2,19825,Lobbes,50.34631966923858,4.260948846223764
L B1-2,1977,Mortsel,51.18289070974223,4.448811507867791
IC 29,3602,Brussel-Zuid,50.83580082886068,4.336052466325346
IC 04-1,726,Deinze-Wijksporen,50.9790461798649,3.540645659081197
IC 25,3804,Couillet,50.39264488205441,4.46933253671293
L 15,5576,Rivage,50.48425613972251,5.586577136640217
L 01,4954,Hermalle-sous-Huy,50.57190883954576,5.379497993919575
L 02,553,Londerzeel,51.00941362761383,4.296896133799565
IC 04-1,727,Ieper,50.847477690810365,2.876886293135154
IC 01,504,Landegem,51.06421597718289,3.57704576219589
L B10-2,3855,Heizijde,50.98889804389831,4.157254201988882
IC 04-1,726,Deinze,50.9781328604359,3.535002801077202
IC 26,3204,Havinnes,50.61882981688033,3.49566068071467
L B8-1,3976,Etterbeek,50.8213075599027,4.39049871944438
L 03,2475,Diest,50.99342002336958,5.050066472491223
L B6,1576,Edingen,50.69722134520999,4.047260476616265
L B5-2,3555,Halle-Goederen,50.73856640826248,4.245188244191178
IC 06-1,1903,Diegem,50.89062008445345,4.441952580833079
L 27,2755,Hambos,50.944395574176696,4.663253957778934
IC 25,3825,Obourg,50.46980723102854,4.006727859438542
IC 06-2,3704,Brussel-Congres,50.85178018311057,4.362219760072247
IC 31,3126,Mortsel-Oude God,51.171808099384776,4.455388660748518
L B1-2,1954,Sint-Genesius-Rode,50.74811387437947,4.361939405198446
IC 20,2204,Erembodegem,50.91929248249657,4.055478044299816
L B6,1553,Brussel-Congres,50.85178018311057,4.362219760072247
L B1-2,1953,Mechelen,51.01761866620954,4.483579828080118
IC 03,1503,Brussel-Centraal,50.84531101978561,4.35675831766839
IC 18,2426,Statte,50.528178167667285,5.21961650061351
IC 14,1704,'s-Gravenbrakel,50.60484523104407,4.138162426655214
IC 03,1504,Beernem,51.127984351343564,3.329867037752411
IC 12,426,Schaarbeek,50.87869266989909,4.378431524039678
L B8-4,6576,Ottignies,50.671773574303224,4.570373990520092
L B2-1,3676,Schaarbeek,50.87869266989909,4.378431524039678
IC 15,4925,Melkouwen,51.095163902445975,4.67120807182244
L 29,4875,Acren,50.73286590540343,3.847018189191549
IC 29,3628,Kortenberg,50.89300415046401,4.543312926825426
L 15,5576,Rivage-Marchandises,50.49075374158829,5.587160273988107
L 01,4976,Tilleur,50.619325790518765,5.52959613022457
IC 32,826,Kortrijk,50.82441338246862,3.267774528680328
IC 29,3602,Brussel-Kapellekerk,50.841176483587425,4.347842850133666
L 02,576,Schellebelle,51.00312616442199,3.92143307788236
IC 12,405,Kortrijk,50.82441338246862,3.267774528680328
L 23,2876,Begijnendijk,51.02202332433806,4.800439914572373
IC 01,504,Drongen,51.047503146402754,3.653586159319735
IC 04-1,704,Beervelde,51.087172443782855,3.879980395685934
IC 29,3603,Merelbeke,51.020057593681734,3.764835020911601
IC 29,3628,Nossegem,50.88344233385105,4.506060556822931
IC 23-1,2328,Zaventem,50.885632548337114,4.469909600155111
IC 25,3827,Luik-Carré,50.64016117047732,5.561580820714428
IC 02,1826,Antwerpen-Zuid,51.19721428415948,4.391779006927757
IC 25,3825,Nimy,50.47176943541776,3.95653982987247
IC 23-1,2326,Roeselare,50.94934123119796,3.13023603832593
L S63-2,19825,Thuin,50.34256310728942,4.288964234932776
IC 03,1503,Brussel-Congres,50.85178018311057,4.362219760072247
IC 18,2426,Bas-Oha,50.52248172084146,5.191103060084089
IC 03,1504,Maria-Aalter,51.10757473497731,3.386700586663826
IC 07,2003,Mechelen,51.01761866620954,4.483579828080118
L B1-2,1977,Mortsel-Liersesteenweg,51.169548577434576,4.469151255029592
IC 06-1,1926,Ruisbroek,50.79177235834205,4.295521156543186
L B3,2254,Denderleeuw,50.891621170603955,4.071431566061722
IC 14,1705,Thulin,50.423428643848624,3.745946901340142
L 04,4654,Péruwelz,50.51361346641127,3.59206286807832
IC 15,4925,Berlaar,51.113708437795054,4.638257975914391
L 01,4954,Engis,50.58266006063994,5.402218863560586
IC 04-1,726,De Pinte,50.998952524822585,3.655383901672195
IC 01,527,Tienen,50.8079314339937,4.925636678946889
L 01,4976,Pont-de-Seraing,50.619916699168094,5.511349156465087
IC 25,3826,Moustier,50.452728270830725,4.693813691441016
IC 06-1,1904,Opzullik,50.663205398063035,3.937245875917736
L A4-2,2675,Beveren(Waas),51.208473876872844,4.260777895162216
L B5-2,3555,Huizingen,50.75164132555423,4.265609116647624
IC 23-1,2328,Diegem,50.89062008445345,4.441952580833079
L 27,2755,Wespelaar-Tildonk,50.958554857806234,4.637792321159048
IC 14,1727,Borgworm,50.69469090868593,5.248963056690451
IC 31,3126,Hove,51.15406191789155,4.465214254147384
IC 25,3826,Moustier-Garage,50.452251562650595,4.676398912033878
L B1-1,1776,Mechelen,51.01761866620954,4.483579828080118
IC 23-1,2303,Vichte,50.833503060446695,3.392847172084267
IC 06-2,3705,Bergen,50.454436770348934,3.942380575452241
IC 25,3826,Ham-sur-Sambre,50.45281278225799,4.672912869837899
L B6,1576,Herne,50.72369800894415,4.014372844199131
IC 03,1528,Kiewit,50.95466485008808,5.350407516097127
L B8-1,3976,Brussel-Luxemburg,50.8388378181944,4.373972450132626
IC 14,1704,Hennuyères-Garage,50.6479509231809,4.173327027471045
L 36,1654,Oudenaarde,50.85060234685959,3.600671251569412
IC 20,2227,Schulen-Sas,50.963577095654976,5.188162889720117
IC 20,2227,Schulen,50.96418013482577,5.18542062549714
L B1-2,1954,Holleken,50.767015163038835,4.354770803816823
IC 29,3602,Brussel-Centraal,50.84531101978561,4.35675831766839
IC 25,3804,Châtelet,50.41014315711594,4.521411822216678
IC 05,4504,Brussel-Zuid,50.83580082886068,4.336052466325346
L 02,553,Kapelle-op-den-Bos,51.010827123385425,4.358811372849264
IC 04-1,725,Antwerpen-Berchem,51.1988702961587,4.432979473543215
L G1,776,Sleidinge,51.12643393786671,3.667545364505891
L L1-1,5275,Nessonvaux,50.57198592493546,5.741746104791544
L B10-2,3855,Opwijk,50.97461822357513,4.187540293365119
IC 05,4526,Weerde,50.977243209834526,4.471087335301695
IC 10,4325,Herentals,51.18107296652878,4.828554945607912
L 15,5576,Poulseur,50.5089593315108,5.578188092061416
L 23,2854,Lier,51.13604368651541,4.561775772658214
IC 11,3405,Binche,50.408563854714735,4.172759557130057
L 04,4655,Quévy,50.34148798303996,3.909640484650724
IC 05,4526,Eppegem,50.95840721352074,4.457499467095007
IC 29,3603,Melle,51.002749921068165,3.796939037051605
L 23,2876,Booischot,51.037499464688636,4.772796366390144
L 01,4976,Jemeppe-sur-Meuse,50.61841627390551,5.497799707765852
IC 06-1,1903,Zaventem,50.885632548337114,4.469909600155111
L 03,2475,Zichem,51.006658165424646,4.987321399197209
IC 31,3126,Kontich-Lint,51.13368368793974,4.47689680687504
IC 23-1,2328,Haren-Zuid,50.889616892134654,4.415076991166356
L 27,2755,Haacht-Wijkspoor,50.96428726510442,4.621727735484607
IC 06-2,3704,Brussel-Noord,50.85959959838314,4.361252318634824
L B3,2254,Liedekerke,50.882547620740944,4.095286581223728
IC 18,2427,Liers-Faisceau,50.69978530450907,5.558491077982493
IC 18,2426,Java,50.51387710977643,5.160698724076279
IC 06-1,1926,Lot,50.765128381018265,4.272571084560079
L B6,1553,Brussel-Noord,50.85959959838314,4.361252318634824
IC 14,1704,Hennuyères,50.65091444999998,4.176132141679284
IC 07,2003,Mechelen-Nekkerspoel,51.030011706650285,4.490206757525486
IC 14,1705,Hainin,50.42802710763502,3.766794741414823
L B1-2,1977,Hove,51.15406191789155,4.465214254147384
IC 06-1,1926,Buizingen,50.75154826326621,4.258657550563639
IC 08,2604,Brussels Airport - Zaventem,50.89642423705851,4.48395784718869
L B10-1,2076,Denderleeuw,50.891621170603955,4.071431566061722
L B1-2,1953,Mechelen-Nekkerspoel,51.030011706650285,4.490206757525486
IC 29,3602,Brussel-Congres,50.85178018311057,4.362219760072247
L 13-1,5855,Libramont,49.920246581133696,5.378998507038368
L 10-1,6175,Marloie,50.20321569506066,5.314305549244098
L 02,576,Wetteren,51.00149929084834,3.881915592818523
IC 30,4205,Turnhout,51.32327000158529,4.938189995120822
IC 05,4504,Brussel-Kapellekerk,50.841176483587425,4.347842850133666
IC 25,3804,Le Campinaire,50.423793968306505,4.542815083314184
IC 29,3603,Kwatrecht,50.99155010054474,3.833335262496046
L 02,554,Gent-Sint-Pieters,51.03551971701421,3.710101315832923
L A4-2,2675,Melsele,51.21082656268172,4.288506223071698
L G2,1875,Zottegem,50.86909906459784,3.814701035934551
IC 03,1527,Leuven,50.88136571115078,4.716208512981546
IC 25,3826,Jemeppe-sur-Sambre,50.45094942294263,4.662626762258042
IC 31,3126,Duffel,51.091684329214274,4.492767295335319
IC 25,3826,Jemeppe-sur-Sambre-Marchandise,50.44797745287747,4.657785895311827
IC 19-1,905,Moeskroen,50.73833321248668,3.225382514546805
L 27,2755,Haacht,50.96626270702382,4.613329769481095
L B8-1,3976,Brussel-Schuman,50.842848617923735,4.380023585783107
IC 23-1,2328,Schaarbeek,50.87869266989909,4.378431524039678
IC 02,1826,Zwijndrecht,51.213640244311954,4.324671903684774
L B5-2,3555,Beersel,50.76636810390514,4.302343410248635
L B6,1576,Tollembeek,50.73542702057838,3.992881040231503
L B2-2,3755,'s-Gravenbrakel,50.60484523104407,4.138162426655214
IC 03,1503,Brussel-Noord,50.85959959838314,4.361252318634824
L S63-2,19825,Hourpes,50.36371477510706,4.30877079907457
IC 14,1704,Tubeke,50.69169220545364,4.20581147629095
L 04,4654,Callenelle,50.527311586615326,3.526278070673758
IC 25,3804,Farciennes,50.42914428371283,4.552667151670986
L B20-1,3055,Ottignies,50.671773574303224,4.570373990520092
IC 26,3204,Leuze,50.60055276661659,3.616784177194411
L L1-1,5275,Fraipont,50.56512345525054,5.723431941853723
IC 05,4526,Vilvoorde,50.92414359820823,4.432813750239998
IC 01,527,Vertrijk,50.83594652922674,4.836594370794067
L 04,4654,Maubray,50.5473596412106,3.496016879443089
IC 10,4325,Wolfstee,51.16893689590626,4.789732769538759
L 15,5576,Esneux,50.52961833787157,5.572858884799018
IC 05,4526,Buda,50.90808941401188,4.417587678075591
IC 12,426,Brussel-Noord,50.85959959838314,4.361252318634824
IC 12,405,Harelbeke,50.85629094542211,3.314655510959286
L 04,4676,Doornik,50.615141816804844,3.388492484343276
L B10-2,3855,Merchtem,50.95391293799017,4.223681249280842
L B8-4,6576,Profondsart,50.69384598089478,4.549496108321164
IC 25,3804,Aiseau,50.42954055375694,4.584376485514419
L B2-1,3676,Brussel-Noord,50.85959959838314,4.361252318634824
L C1,4555,Ottignies,50.671773574303224,4.570373990520092
L C2-1,4254,La Louvière-Zuid,50.464993656778184,4.19010515835262
L L1-1,5275,Olne,50.56639308394579,5.703133531852481
L 01,4976,Flémalle-Grande,50.6052596351082,5.481089013737427
L G1,776,Evergem,51.10754309685516,3.701533161896776
L 03,2475,Testelt,51.009863921942355,4.945833786595188
IC 17,2526,Jambes,50.45397911996434,4.875468217584368
IC 23-1,2303,Anzegem,50.826216033991116,3.495470091998172
IC 31,3126,Sint-Katelijne-Waver,51.07092770112268,4.495807348133646
IC 28,3027,Kortemark,51.02513426910576,3.043944762312061
IC 07,2003,Sint-Katelijne-Waver,51.07092770112268,4.495807348133646
IC 11,3427,Herentals,51.18107296652878,4.828554945607912
IC 03,1504,Aalter,51.09225779139449,3.447855382940146
IC 20,2204,Denderleeuw,50.891621170603955,4.071431566061722
L B1-2,1954,Linkebeek,50.77339212483393,4.339918296891916
IC 14,1704,Lembeek,50.71511214097718,4.221567770089727
IC 07,2027,Schaarbeek-Groep R,50.888951436843996,4.408535403559564
IC 14,1705,Boussu,50.43603991470513,3.79597174083758
IC 08,2626,Leuven,50.88136571115078,4.716208512981546
IC 07,2003,Duffel,51.091684329214274,4.492767295335319
IC 08,2604,Nossegem,50.88344233385105,4.506060556822931
IC 18,2427,Liers,50.69817964040005,5.566911104405785
IC 06-1,1926,Halle,50.733060256649814,4.239823954453461
IC 21,4104,Dendermonde,51.022951980794005,4.101327011759538
L 10-1,6175,Aye,50.2248529224513,5.300638767175158
IC 29,3628,Brussels Airport - Zaventem,50.89642423705851,4.48395784718869
IC 01,504,Gent-Sint-Pieters,51.03551971701421,3.710101315832923
IC 26,3228,Sint-Niklaas,51.17159935285642,4.143282196338587
IC 05,4504,Brussel-Centraal,50.84531101978561,4.35675831766839
L C4,3926,Couvin,50.057799568191655,4.492998249775371
IC 05,4505,Charleroi-Centraal,50.40419960613283,4.438439317373349
IC 23-2,2805,Brugge-Sint-Pieters,51.22266043095538,3.201678747582974
IC 03,1527,Herent,50.90358929255643,4.672141055672479
IC 06-2,3704,Schaarbeek,50.87869266989909,4.378431524039678
IC 23-1,2326,Lichtervelde,51.025212177341054,3.126819220887453
IC 25,3827,Luik-Guillemins,50.62555824033023,5.565379651677738
L B1-1,1776,Weerde,50.977243209834526,4.471087335301695
IC 02,1826,Melsele,51.21082656268172,4.288506223071698
IC 06-2,3705,Ghlin,50.487523509938555,3.90639438934079
L B5-2,3555,Moensberg,50.777890962664365,4.329808312415132
IC 03,1527,Veltem,50.90055001720875,4.633517445095211
L A4-2,2675,Zwijndrecht,51.213640244311954,4.324671903684774
L G2,1875,Balegem-Zuid,50.9008046268035,3.805776390974759
L B6,1576,Galmaarden,50.74402497456338,3.964956486506644
L B10-1,2076,Liedekerke,50.882547620740944,4.095286581223728
L 36,1654,Sint-Denijs-Boekel,50.874198889945404,3.698421279546744
L B6,1554,Geraardsbergen,50.770949248522925,3.872417489184951
IC 03,1504,Bellem,51.08372389725801,3.487287359353551
L B1-2,1977,Kontich-Lint,51.13368368793974,4.47689680687504
IC 03,1503,Schaarbeek,50.87869266989909,4.378431524039678
IC 18,2426,Andenne,50.496828765415096,5.095965480077196
IC 12,426,Brussel-Congres,50.85178018311057,4.362219760072247
IC 04-1,704,Gent-Dampoort,51.056728987048956,3.740515250330524
L 15,5576,Hony,50.54017176737816,5.573926108998182
L 23,2854,Berlaar,51.113708437795054,4.638257975914391
IC 29,3602,Brussel-Noord,50.85959959838314,4.361252318634824
L 01,4976,Leman,50.59896972583936,5.465658900379582
IC 29,3603,Wetteren,51.00149929084834,3.881915592818523
IC 04-1,727,Komen,50.771963555146186,2.999344828949002
IC 10,4325,Bouwel,51.16584351392913,4.747581819970593
L L1-1,5275,Trooz,50.57328744502597,5.688448772904129
L 02,576,Kwatrecht,50.99155010054474,3.833335262496046
IC 11,3405,Leval,50.43066476604268,4.211414215952779
IC 01,528,Welkenraedt,50.65937064749165,5.974267220223243
L B2-1,3676,Brussel-Congres,50.85178018311057,4.362219760072247
L 23,2876,Heist-op-den-Berg,51.073554825164585,4.709356990822297
IC 25,3804,Tamines,50.432082424904884,4.60886693717308
L C1,4555,Céroux-Mousty,50.6593132895864,4.569055560535676
IC 32,826,Ingelmunster,50.91484341700642,3.254708319352296
L 29,4876,Bergen,50.454436770348934,3.942380575452241
L B20-1,3055,Limal,50.69197975199437,4.575848696098152
L B8-4,6576,Rixensart,50.71351481096948,4.530823605161436
IC 05,4504,Brussel-Congres,50.85178018311057,4.362219760072247
IC 15,4925,Lier,51.13604368651541,4.561775772658214
IC 05,4526,Schaarbeek,50.87869266989909,4.378431524039678
L 15,5577,Rochefort-Jemelle,50.16041579741265,5.266796362528351
IC 12,404,Brussel-Zuid,50.83580082886068,4.336052466325346
L B10-2,3855,Mollem,50.932896546874765,4.216581185073014
IC 25,3827,Sclessin,50.61036517564539,5.55669507871075
IC 06-2,3705,Erbisoeul,50.5078636253228,3.888447711073647
IC 06-1,1904,Edingen,50.69722134520999,4.047260476616265
IC 17,2526,Namur-Herbatte,50.469169910735076,4.869133583242475
L 27,2755,Boortmeerbeek,50.98190383220303,4.57399271193005
IC 25,3826,Auvelais,50.449170411135086,4.63070038869451
L B1-2,1954,Ukkel-Kalevoet,50.79221449555428,4.331745965347926
IC 18,2426,Château-de-Seilles,50.497212725023616,5.081752631616731
IC 08,2604,Kortenberg-Goederen,50.893766016593474,4.552069735832903
IC 08,2604,Kortenberg,50.89300415046401,4.543312926825426
IC 14,1704,Halle,50.733060256649814,4.239823954453461
IC 07,2003,Kontich-Lint,51.13368368793974,4.47689680687504
IC 03,1504,Hansbeke,51.07270818510425,3.537446874067181
IC 03,1503,Haren-Zuid,50.889616892134654,4.415076991166356
L B1-2,1953,Sint-Katelijne-Waver,51.07092770112268,4.495807348133646
IC 20,2204,Liedekerke,50.882547620740944,4.095286581223728
IC 18,2427,Milmort,50.69342290621258,5.599557700763655
IC 11,3427,Wolfstee,51.16893689590626,4.789732769538759
IC 08,2604,Erps-Kwerps,50.89654505809275,4.584930600736926
L B10-1,2076,Essene-Lombeek,50.882398692140114,4.115166601057234
IC 20,2227,Diest,50.99342002336958,5.050066472491223
L S63-2,19825,Landelies,50.37744147997038,4.35082634155706
IC 07,2003,Hove,51.15406191789155,4.465214254147384
IC 21,4104,Baasrode-Zuid,51.01938772431604,4.15401461327405
L 04,4654,Antoing,50.569648067428595,3.451351534219263
L B2-1,3676,Brussel-Centraal,50.84531101978561,4.35675831766839
IC 04-1,726,Gent-Sint-Pieters,51.03551971701421,3.710101315832923
L G1,776,Wondelgem,51.08898575456289,3.719596592718692
L B8-1,3955,Zottegem,50.86909906459784,3.814701035934551
IC 31,3126,Mechelen-Nekkerspoel,51.030011706650285,4.490206757525486
IC 23-1,2328,Brussel-Noord,50.85959959838314,4.361252318634824
IC 02,1826,Beveren(Waas),51.208473876872844,4.260777895162216
IC 19-1,905,Herseaux,50.71428726455946,3.24481180953509
IC 14,1727,Landen,50.7478945465236,5.079627434738533
L B1-1,1776,Eppegem,50.95840721352074,4.457499467095007
IC 03,1527,Erps-Kwerps,50.89654505809275,4.584930600736926
L B2-2,3755,Hennuyères-Garage,50.6479509231809,4.173327027471045
L 03,2475,Langdorp,51.00246923181287,4.863538493784459
IC 03,1527,Kortenberg,50.89300415046401,4.543312926825426
IC 03,1528,Hasselt,50.93094539063631,5.326071324066093
L B2-2,3755,Hennuyères,50.65091444999998,4.176132141679284
IC 25,3827,Tilleur,50.619325790518765,5.52959613022457
L G2,1875,Balegem-Dorp,50.92004304051835,3.791056533864412
IC 03,1503,Diegem,50.89062008445345,4.441952580833079
L B3,2277,Dendermonde,51.022951980794005,4.101327011759538
L B1-2,1954,Ukkel-Stalle,50.80248548912509,4.323778171903269
IC 14,1704,Buizingen,50.75154826326621,4.258657550563639
IC 07,2003,Mortsel-Deurnesteenweg,51.18231715581698,4.447187644772542
IC 07,2003,Mortsel-Oude God,51.171808099384776,4.455388660748518
L 36,1654,Munkzwalm,50.875656666067506,3.731514205002289
IC 08,2604,Veltem,50.90055001720875,4.633517445095211
L 04,4655,Genly,50.39072345653245,3.911927656249831
L B2-1,3676,Brussel-Kapellekerk,50.841176483587425,4.347842850133666
L 02,576,Melle,51.002749921068165,3.796939037051605
IC 10,4326,Hamont,51.24610100168093,5.541909994902332
IC 10,4325,Nijlen,51.15960165747347,4.664476042560455
L 15,5576,Méry,50.54825330128011,5.587073124315626
IC 29,3602,Schaarbeek,50.87869266989909,4.378431524039678
L B8-4,6576,Genval,50.726467561824926,4.513841930930245
IC 32,826,Izegem-Sas,50.92120714692377,3.219680037338991
IC 12,404,Brussel-Kapellekerk,50.841176483587425,4.347842850133666
IC 12,426,Brussel-Centraal,50.84531101978561,4.35675831766839
IC 04-1,704,Gentbrugge,51.03878033373764,3.756083021687756
L 13-1,5855,Neufchâteau,49.85424516060266,5.452480885543958
L 02,554,Merelbeke,51.020057593681734,3.764835020911601
IC 26,3228,Belsele,51.15105293420193,4.088971325808107
IC 12,426,Brussel-Kapellekerk,50.841176483587425,4.347842850133666
L C1,4555,Court-Saint-Etienne,50.645568864411956,4.56554152667738
IC 04-1,704,Gentbrugge-Perron C.W.,51.029577695344535,3.752448334641758
IC 21,4104,Buggenhout,51.01631183819492,4.200760136726267
L 23,2854,Melkouwen,51.095163902445975,4.67120807182244
L L1-1,5275,Chaudfontaine,50.58695623775602,5.644168864995391
IC 29,3603,Schellebelle,51.00312616442199,3.92143307788236
IC 26,3226,Doornik,50.615141816804844,3.388492484343276
IC 10,4325,Kessel,51.151056001612034,4.618457995215415
L C2-1,4254,La Louvière-Centrum,50.477715304331944,4.180068630195054
L B20-1,3055,Bierges-Walibi,50.707651778207,4.595155144797867
IC 23-1,2326,Torhout,51.064712250785384,3.105750907108637
IC 25,3827,Jemeppe-sur-Meuse,50.61841627390551,5.497799707765852
IC 25,3827,Pont-de-Seraing,50.619916699168094,5.511349156465087
IC 23-1,2328,Brussel-Congres,50.85178018311057,4.362219760072247
IC 03,1527,Nossegem,50.88344233385105,4.506060556822931
L B5-2,3555,Sint-Job,50.793586213518765,4.360429545901712
L B6,1576,Viane-Moerbeke,50.751952939919235,3.917163280042836
IC 08,2604,Herent,50.90358929255643,4.672141055672479
IC 11,3427,Bouwel,51.16584351392913,4.747581819970593
IC 18,2426,Sclaigneaux,50.49212088315084,5.026460713868468
IC 03,1504,Landegem,51.06421597718289,3.57704576219589
IC 03,1503,Zaventem,50.885632548337114,4.469909600155111
IC 14,1704,Lot,50.765128381018265,4.272571084560079
L B1-2,1977,Duffel,51.091684329214274,4.492767295335319
IC 28,3027,Lichtervelde,51.025212177341054,3.126819220887453
L B3,2254,Anderlecht,50.817918890620895,4.29153935389493
IC 14,1705,Saint-Ghislain,50.44273476444009,3.820015769849533
IC 08,2626,Herent,50.90358929255643,4.672141055672479
IC 32,826,Izegem,50.92110934791895,3.21346951707641
IC 12,405,Waregem,50.89242835003542,3.42559831780833
IC 04-1,727,Wervik,50.781855330951956,3.046976838293909
IC 05,4505,Marchienne-au-Pont,50.41221701003429,4.394312434115766
IC 25,3804,Auvelais,50.449170411135086,4.63070038869451
L 04,4676,Antoing,50.569648067428595,3.451351534219263
IC 01,528,Dolhain-Gileppe,50.62692515023561,5.93868646551414
L B10-2,3855,Asse,50.90670257176685,4.208230395126666
L 10-1,6175,Haversin,50.24958547235042,5.193879552914665
L 23,2876,Melkouwen,51.095163902445975,4.67120807182244
IC 05,4504,Brussel-Noord,50.85959959838314,4.361252318634824
IC 03,1527,Zaventem,50.885632548337114,4.469909600155111
L 27,2755,Hever,50.99640059409282,4.540771399949431
IC 06-2,3705,Jurbeke,50.530554529567226,3.91061322221787
IC 06-2,3726,Brussels Airport - Zaventem,50.89642423705851,4.48395784718869
IC 14,1727,Neerwinden,50.76376087904074,5.036335028170957
IC 25,3826,Tamines,50.432082424904884,4.60886693717308
IC 25,3827,Flémalle-Grande,50.6052596351082,5.481089013737427
IC 02,1826,Nieuwkerken-Waas,51.18508212954049,4.184439116403614
L A4-2,2675,Antwerpen-Zuid,51.19721428415948,4.391779006927757
IC 03,1527,Diegem,50.89062008445345,4.441952580833079
IC 14,1727,Ezemaal,50.77212949781888,4.994219913271197
IC 25,3827,Leman,50.59896972583936,5.465658900379582
L B5-2,3555,Diesdelle,50.79612575604862,4.373898950394146
L B8-1,3976,Brussel-Noord,50.85959959838314,4.361252318634824
L B6,1554,Viane-Moerbeke,50.751952939919235,3.917163280042836
L S63-2,19825,Marchienne-Zone,50.397619848761245,4.389973803252673
IC 20,2227,Zichem,51.006658165424646,4.987321399197209
IC 18,2426,Namêche,50.470279570029426,4.99842958361612
IC 07,2003,Antwerpen-Berchem,51.1988702961587,4.432979473543215
IC 08,2626,Veltem,50.90055001720875,4.633517445095211
L B10-1,2076,Ternat,50.874645887542954,4.165480312447825
L B1-2,1953,Duffel,51.091684329214274,4.492767295335319
IC 03,1503,Nossegem,50.88344233385105,4.506060556822931
L B3,2277,Sint-Gillis(Dendermonde),51.02208185742186,4.117208570505743
L B1-2,1954,Vorst-Oost,50.81020033751361,4.320981153478699
IC 14,1704,Ruisbroek,50.79177235834205,4.295521156543186
IC 21,4104,Malderen,51.01428356975301,4.231399792037534
L 10-1,6175,Haversin-Garage,50.25045779143735,5.192954824931276
IC 30,4205,Tielen,51.240861461973786,4.893344963001603
L B8-4,6576,Terhulpen,50.73811044447185,4.497448352714626
L 11,6077,Bertrix,49.85232574338336,5.268150158432898
IC 15,4925,Boechout,51.16382800159388,4.49404699525959
IC 29,3628,Schaarbeek,50.87869266989909,4.378431524039678
L C2-1,4254,La Louvière-Industriestation,50.48597883133482,4.193672918052559
L 01,4954,Flémalle-Haute,50.59463893442038,5.456315954565175
IC 12,404,Brussel-Centraal,50.84531101978561,4.35675831766839
L 29,4876,Ghlin,50.487523509938555,3.90639438934079
IC 23-2,2805,Brugge,51.19727306937378,3.216852878213191
IC 04-1,726,Gentbrugge-Perron C.W.,51.029577695344535,3.752448334641758
L 02,576,Merelbeke,51.020057593681734,3.764835020911601
IC 26,3228,Sinaai,51.143500701126385,4.068856389093756
IC 04-1,726,Gentbrugge,51.03878033373764,3.756083021687756
IC 05,4526,Brussel-Noord,50.85959959838314,4.361252318634824
L B8-1,3955,Hillegem,50.89129484430886,3.857476893082532
IC 25,3804,Jemeppe-sur-Sambre-Marchandise,50.44797745287747,4.657785895311827
L 15,5576,Tilff,50.57025703496445,5.582656168279681
L 04,4655,Frameries,50.40552689156566,3.906385856821704
L B20-1,3055,Waver,50.71613796385702,4.605127669873097
IC 02,1826,Sint-Niklaas-Oost,51.176623377622434,4.159519894481113
L B1-1,1776,Vilvoorde,50.92414359820823,4.432813750239998
L G2,1875,Scheldewindeke,50.93780300159805,3.777613995483383
IC 23-1,2328,Brussel-Centraal,50.84531101978561,4.35675831766839
IC 25,3826,Aiseau,50.42954055375694,4.584376485514419
IC 03,1504,Drongen,51.047503146402754,3.653586159319735
IC 11,3427,Nijlen,51.15960165747347,4.664476042560455
IC 18,2427,Herstal,50.66038889612703,5.622362799581048
IC 20,2227,Testelt,51.009863921942355,4.945833786595188
IC 18,2426,Marche-les-Dames,50.480718861804796,4.964576135362847
IC 03,1503,Kortenberg,50.89300415046401,4.543312926825426
IC 14,1704,Vorst-Zuid,50.810073408172734,4.310347515402428
IC 18,2426,Marche-les-Dames-Marchandises,50.48053191922914,4.967202412995651
L B3,2277,Lebbeke,51.00475356147399,4.134881157174673
IC 03,1503,Erps-Kwerps,50.89654505809275,4.584930600736926
IC 08,2626,Erps-Kwerps,50.89654505809275,4.584930600736926
L C4,3926,Mariembourg,50.09533742372334,4.525417233992525
L 04,4676,Maubray,50.5473596412106,3.496016879443089
L C1,4555,Faux,50.62178659810776,4.549374449348136
IC 26,3204,Aat,50.627030183302196,3.776393685659921
IC 05,4505,Roux,50.44308266140329,4.394000597539677
IC 01,527,Leuven,50.88136571115078,4.716208512981546
IC 23-2,2825,Brugge,51.19727306937378,3.216852878213191
L 02,554,Melle,51.002749921068165,3.796939037051605
L L1-1,5275,Chênée,50.60835327318151,5.614856781125281
L 23,2854,Heist-op-den-Berg,51.073554825164585,4.709356990822297
L G1,755,Oudenaarde,50.85060234685959,3.600671251569412
IC 05,4504,Schaarbeek,50.87869266989909,4.378431524039678
IC 29,3603,Serskamp,50.98453800875389,3.959538984169734
IC 12,404,Brussel-Congres,50.85178018311057,4.362219760072247
IC 31,3126,Mechelen,51.01761866620954,4.483579828080118
L 03,2475,Aarschot,50.98449635540834,4.823698347886938
L 27,2755,Muizen,51.00823700109542,4.514109018598967
IC 06-2,3705,Masnuy-Saint-Pierre,50.536335796446835,3.962143546959787
IC 23-1,2303,Oudenaarde,50.85060234685959,3.600671251569412
L B8-1,3976,Brussel-Congres,50.85178018311057,4.362219760072247
IC 03,1527,Haren-Zuid,50.889616892134654,4.415076991166356
L B2-2,3755,Tubeke,50.69169220545364,4.20581147629095
IC 25,3827,Flémalle-Haute,50.59463893442038,5.456315954565175
IC 25,3826,Farciennes,50.42914428371283,4.552667151670986
IC 25,3826,Le Campinaire,50.423793968306505,4.542815083314184
L B5-2,3576,Mechelen,51.01761866620954,4.483579828080118
IC 23-1,2328,Brussel-Kapellekerk,50.841176483587425,4.347842850133666
L B5-2,3555,Boondaal,50.801951889621996,4.393613977537654
IC 08,2626,Kortenberg,50.89300415046401,4.543312926825426
L B10-1,2076,Sint-Martens-Bodegem,50.8671660562188,4.2049393203133
IC 03,1503,Veltem,50.90055001720875,4.633517445095211
L B1-2,1977,Sint-Katelijne-Waver,51.07092770112268,4.495807348133646
IC 11,3427,Kessel,51.151056001612034,4.618457995215415
L B6,1554,Galmaarden,50.74402497456338,3.964956486506644
IC 08,2626,Kortenberg-Goederen,50.893766016593474,4.552069735832903
IC 15,4925,Mortsel,51.18289070974223,4.448811507867791
L 02,555,Brugge,51.19727306937378,3.216852878213191
L 23,2876,Berlaar,51.113708437795054,4.638257975914391
L 04,4676,Callenelle,50.527311586615326,3.526278070673758
IC 13,5127,Schaarbeek-D.O.P.,50.889498664866004,4.408750284691125
L 01,4954,Leman,50.59896972583936,5.465658900379582
IC 05,4526,Brussel-Congres,50.85178018311057,4.362219760072247
IC 05,4505,Courcelles-Motte,50.46202986102244,4.400412086453594
L B2-1,3676,Brussel-Zuid,50.83580082886068,4.336052466325346
L B8-4,6576,Hoeilaart,50.76018324853293,4.467428762947364
IC 26,3226,Froyennes,50.629514143330255,3.355483776176476
L 29,4876,Erbisoeul,50.5078636253228,3.888447711073647
IC 25,3804,Jemeppe-sur-Sambre,50.45094942294263,4.662626762258042
L 29,4855,Geraardsbergen,50.770949248522925,3.872417489184951
L B10-2,3855,Zellik,50.889543320907,4.275293625047353
L 15,5577,Marloie,50.20321569506066,5.314305549244098
IC 29,3629,Landen,50.7478945465236,5.079627434738533
L G1,776,Gent-Dampoort,51.056728987048956,3.740515250330524
IC 25,3804,Ham-sur-Sambre,50.45281278225799,4.672912869837899
L L4,5176,Luik-Guillemins,50.62555824033023,5.565379651677738
IC 23-2,2805,Oostkamp,51.15421490987769,3.257626153621203
IC 04-1,727,Menen,50.79946001891374,3.113887199330697
IC 21,4104,Londerzeel,51.00941362761383,4.296896133799565
L B8-1,3955,Herzele,50.89692470109805,3.879519908406242
L B20-1,3055,Basse-Wavre,50.72414363271483,4.621220383958832
IC 10,4325,Lier,51.13604368651541,4.561775772658214
IC 06-2,3705,Neufvilles,50.543523197055165,4.010763312378273
L B5-2,3555,Arcaden,50.809668214471365,4.398413181937825
IC 19-1,905,Froyennes,50.629514143330255,3.355483776176476
L G2,1875,Moortsele,50.95295090340576,3.780982223065362
L B8-1,3976,Brussel-Centraal,50.84531101978561,4.35675831766839
IC 03,1528,Alken,50.886400235927916,5.291749444935051
IC 06-2,3705,Neufvilles-Garage,50.5460562377274,4.015352406771576
L A3,2976,Mol,51.19069542549062,5.114991873356337
IC 03,1527,Schaarbeek,50.87869266989909,4.378431524039678
IC 08,2626,Nossegem,50.88344233385105,4.506060556822931
IC 06-1,1926,Edingen,50.69722134520999,4.047260476616265
IC 20,2227,Langdorp,51.00246923181287,4.863538493784459
IC 14,1705,Quaregnon,50.449728268340586,3.855599112085348
L B3,2277,Heizijde,50.98889804389831,4.157254201988882
IC 20,2204,Anderlecht,50.817918890620895,4.29153935389493
IC 03,1503,Herent,50.90358929255643,4.672141055672479
L B1-2,1953,Kontich-Lint,51.13368368793974,4.47689680687504
IC 01,505,Oostende,51.22794248315333,2.926625863197556
L 10-1,6175,Chapois,50.26226836222129,5.124119622764102
IC 04-1,704,Gent-Sint-Pieters,51.03551971701421,3.710101315832923
L 02,554,Kwatrecht,50.99155010054474,3.833335262496046
IC 32,826,Roeselare,50.94934123119796,3.13023603832593
IC 05,4504,Buda,50.90808941401188,4.417587678075591
IC 01,528,Verviers-Paleis,50.59092927829129,5.865284693352242
IC 04-1,726,Gent-Dampoort,51.056728987048956,3.740515250330524
L 01,4976,Flémalle-Haute,50.59463893442038,5.456315954565175
IC 26,3228,Lokeren-Oost,51.10977280180321,3.991494840923161
L L1-1,5275,Angleur,50.61253000192086,5.600948994820556
IC 01,527,Herent,50.90358929255643,4.672141055672479
IC 25,3804,Moustier-Garage,50.452251562650595,4.676398912033878
IC 23-2,2825,Brugge-Sint-Pieters,51.22266043095538,3.201678747582974
IC 23-2,2804,Brussel-Zuid,50.83580082886068,4.336052466325346
L C1,4555,La Roche(Brabant),50.61023315895161,4.539569635859897
L B8-4,6576,Groenendaal,50.766147386895206,4.44935705453385
L 01,4954,Flémalle-Grande,50.6052596351082,5.481089013737427
IC 25,3827,Engis,50.58266006063994,5.402218863560586
L B2-2,3755,Lembeek,50.71511214097718,4.221567770089727
L B1-1,1776,Buda,50.90808941401188,4.417587678075591
L B8-1,3976,Brussel-Kapellekerk,50.841176483587425,4.347842850133666
IC 23-1,2326,Zedelgem,51.126381461398005,3.163480495051282
L B6,1577,Schaarbeek,50.87869266989909,4.378431524039678
L B6,1576,Geraardsbergen,50.770949248522925,3.872417489184951
IC 02,1826,Sint-Niklaas,51.17159935285642,4.143282196338587
IC 06-1,1904,Halle,50.733060256649814,4.239823954453461
L A4-2,2675,Antwerpen-Berchem,51.1988702961587,4.432979473543215
L B6,1554,Tollembeek,50.73542702057838,3.992881040231503
IC 08,2627,Hasselt,50.93094539063631,5.326071324066093
IC 25,3804,Moustier,50.452728270830725,4.693813691441016
IC 15,4925,Antwerpen-Berchem,51.1988702961587,4.432979473543215
L G1,755,Eine,50.871000895022995,3.623822543985241
IC 29,3603,Lede,50.970970941375874,3.985076835022102
IC 29,3602,Brussels Airport - Zaventem,50.89642423705851,4.48395784718869
IC 13,5127,Schaarbeek-NOS,50.882458051539146,4.390199063033686
IC 12,404,Brussel-Noord,50.85959959838314,4.361252318634824
IC 05,4504,Vilvoorde,50.92414359820823,4.432813750239998
IC 12,426,Brussel-Zuid,50.83580082886068,4.336052466325346
IC 05,4526,Brussel-Centraal,50.84531101978561,4.35675831766839
IC 29,3628,Brussel-Noord,50.85959959838314,4.361252318634824
IC 04-1,705,Antwerpen-Centraal,51.216862033537794,4.421083629947415
IC 11,3405,La Louvière-Zuid,50.464993656778184,4.19010515835262
IC 12,405,Deinze,50.9781328604359,3.535002801077202
IC 23-2,2804,Brussel-Kapellekerk,50.841176483587425,4.347842850133666
IC 01,527,Veltem,50.90055001720875,4.633517445095211
L 04,4676,Péruwelz,50.51361346641127,3.59206286807832
L B20-1,3055,Gastuche,50.73643857537926,4.649935387130403
L 13-1,5855,Marbehan,49.72742014932923,5.53975533337961
L B8-1,3955,Terhagen,50.90182412616037,3.897482385381147
IC 10,4326,Neerpelt,51.22237547958096,5.437315565832811
L 23,2854,Booischot,51.037499464688636,4.772796366390144
IC 23-2,2805,Beernem,51.127984351343564,3.329867037752411
IC 01,528,Verviers-Centraal,50.587801914284064,5.854635277252846
L B5-2,3555,Etterbeek,50.8213075599027,4.39049871944438
IC 31,3126,Weerde,50.977243209834526,4.471087335301695
L G2,1875,Landskouter,50.970632711493394,3.791317792734344
L B19,4005,Charleroi-Centraal,50.40419960613283,4.438439317373349
IC 06-2,3726,Schaarbeek,50.87869266989909,4.378431524039678
IC 25,3827,Hermalle-sous-Huy,50.57190883954576,5.379497993919575
IC 19-1,927,Namen,50.46920536707373,4.862754782172303
IC 23-1,2303,Sint-Denijs-Boekel,50.874198889945404,3.698421279546744
L 03,2475,Wezemaal,50.95636089869388,4.748012297469645
L B4,2155,Mechelen,51.01761866620954,4.483579828080118
IC 07,2003,Antwerpen-Centraal,51.216862033537794,4.421083629947415
L B1-2,1954,Brussel-Zuid,50.83580082886068,4.336052466325346
IC 14,1704,Brussel-Zuid,50.83580082886068,4.336052466325346
IC 14,1705,Jemappes,50.45256323711496,3.885169785310784
L B10-1,2076,Dilbeek,50.86638979130907,4.243574071280418
IC 20,2228,Tongeren,50.78417812241077,5.473981817007522
L B1-2,1977,Mechelen-Nekkerspoel,51.030011706650285,4.490206757525486
IC 11,3427,Lier,51.13604368651541,4.561775772658214
IC 03,1504,Gent-Sint-Pieters,51.03551971701421,3.710101315832923
L B2-1,3676,Vorst-Zuid,50.810073408172734,4.310347515402428
IC 12,405,Deinze-Wijksporen,50.9790461798649,3.540645659081197
IC 21,4104,Kapelle-op-den-Bos,51.010827123385425,4.358811372849264
IC 26,3228,Lokeren,51.1070280724398,3.985383235145282
IC 21,4126,Dendermonde,51.022951980794005,4.101327011759538
L 15,5577,Marche-en-Famenne,50.222535392854475,5.34617844744314
IC 25,3804,Franière,50.439609337705065,4.733609958418976
L 10-1,6175,Leignon,50.267702734121116,5.107729107898765
IC 29,3628,Brussel-Congres,50.85178018311057,4.362219760072247
IC 05,4504,Eppegem,50.95840721352074,4.457499467095007
IC 05,4526,Brussel-Kapellekerk,50.841176483587425,4.347842850133666
L 01,4954,Jemeppe-sur-Meuse,50.61841627390551,5.497799707765852
L 29,4876,Jurbeke,50.530554529567226,3.91061322221787
L G1,776,Gentbrugge,51.03878033373764,3.756083021687756
IC 01,527,Erps-Kwerps,50.89654505809275,4.584930600736926
L 15,5576,Angleur,50.61253000192086,5.600948994820556
IC 25,3805,Bergen,50.454436770348934,3.942380575452241
IC 23-1,2303,Munkzwalm,50.875656666067506,3.731514205002289
IC 25,3826,Châtelet,50.41014315711594,4.521411822216678
L B1-1,1777,Antwerpen-Centraal,51.216862033537794,4.421083629947415
IC 25,3827,Haute-Flône,50.55424859743379,5.331294580631765
IC 23-1,2328,Brussel-Zuid,50.83580082886068,4.336052466325346
IC 14,1727,Tienen,50.8079314339937,4.925636678946889
IC 31,3126,Eppegem,50.95840721352074,4.457499467095007
IC 02,1826,Belsele,51.15105293420193,4.088971325808107
L G2,1875,Gontrode,50.97984015695545,3.801555019043831
IC 02,1826,Sinaai,51.143500701126385,4.068856389093756
IC 03,1527,Brussel-Noord,50.85959959838314,4.361252318634824
IC 06-2,3705,Zinnik,50.57312318221692,4.069352245033392
L B6,1576,Schendelbeke,50.79778703486261,3.899162975185788
IC 06-1,1904,Buizingen,50.75154826326621,4.258657550563639
L B8-1,3977,Louvain-la-Neuve,50.669942365664625,4.616284940483432
IC 25,3827,Amay,50.54592191603607,5.320609487870715
L B3,2254,Brussel-Zuid,50.83580082886068,4.336052466325346
IC 20,2205,Gent-Sint-Pieters,51.03551971701421,3.710101315832923
L B3,2277,Opwijk,50.97461822357513,4.187540293365119
L B1-2,1953,Hove,51.15406191789155,4.465214254147384
L B6,1554,Herne,50.72369800894415,4.014372844199131
IC 18,2426,Namur-Herbatte,50.469169910735076,4.869133583242475
L B1-2,1954,Brussel-Kapellekerk,50.841176483587425,4.347842850133666
IC 18,2427,Luik-Sint-Lambertus,50.64694935205776,5.57261263700804
IC 14,1704,Brussel-Kapellekerk,50.841176483587425,4.347842850133666
IC 05,4504,Weerde,50.977243209834526,4.471087335301695
L 02,554,Wetteren,51.00149929084834,3.881915592818523
IC 29,3629,Neerwinden,50.76376087904074,5.036335028170957
L 29,4855,Acren,50.73286590540343,3.847018189191549
IC 23-2,2805,Maria-Aalter,51.10757473497731,3.386700586663826
IC 10,4325,Boechout,51.16382800159388,4.49404699525959
L B8-4,6576,Bosvoorde,50.79455788670699,4.408269528287142
IC 05,4505,Luttre,50.50601206060288,4.384250449864734
IC 12,404,Schaarbeek,50.87869266989909,4.378431524039678
L B10-2,3855,Jette,50.88120457651592,4.332923410788644
L 02,555,Oostkamp,51.15421490987769,3.257626153621203
L C2-1,4276,La Louvière-Zuid,50.464993656778184,4.19010515835262
IC 04-1,727,Wevelgem,50.81106670481992,3.182483664800671
L B9,3255,Nijvel,50.6004932591792,4.335288481441468
IC 01,527,Kortenberg,50.89300415046401,4.543312926825426
IC 29,3628,Brussel-Centraal,50.84531101978561,4.35675831766839
L B8-1,3955,Burst,50.90690477967195,3.920956497963406
L B20-1,3055,Eerken,50.75433674841785,4.662366455406936
L B2-1,3677,Leuven,50.88136571115078,4.716208512981546
IC 10,4326,Overpelt,51.215549622947385,5.423126886234479
L 01,4976,Engis,50.58266006063994,5.402218863560586
L 01,4954,Pont-de-Seraing,50.619916699168094,5.511349156465087
IC 25,3804,Floreffe,50.44348110262792,4.762999763962485
L 23,2854,Begijnendijk,51.02202332433806,4.800439914572373
IC 15,4926,Hasselt,50.93094539063631,5.326071324066093
IC 23-2,2804,Brussel-Centraal,50.84531101978561,4.35675831766839
L C1,4555,Villers-la-Ville,50.57809065042433,4.53350004126608
IC 01,527,Nossegem,50.88344233385105,4.506060556822931
L G1,776,Gentbrugge-Perron C.W.,51.029577695344535,3.752448334641758
L 13-2,5977,Aarlen,49.679971210545986,5.810609705951418
IC 29,3602,Nossegem,50.88344233385105,4.506060556822931
L 27,2755,Mechelen,51.01761866620954,4.483579828080118
L B1-1,1776,Schaarbeek,50.87869266989909,4.378431524039678
IC 06-1,1904,Lot,50.765128381018265,4.272571084560079
L B2-2,3755,Halle,50.733060256649814,4.239823954453461
IC 25,3827,Ampsin,50.53917375822986,5.288862316887595
IC 20,2227,Aarschot,50.98449635540834,4.823698347886938
IC 06-1,1927,Brussels Airport - Zaventem,50.89642423705851,4.48395784718869
IC 08,2626,Brussels Airport - Zaventem,50.89642423705851,4.48395784718869
L B10-1,2076,Groot-Bijgaarden,50.86839848514289,4.274515963982332
IC 06-1,1926,Opzullik,50.663205398063035,3.937245875917736
IC 08,2604,Leuven,50.88136571115078,4.716208512981546
L B3,2254,Brussel-Kapellekerk,50.841176483587425,4.347842850133666
IC 28,3027,Tielt,50.99003689048316,3.328627110235745
IC 03,1503,Leuven,50.88136571115078,4.716208512981546
L B1-2,1954,Brussel-Centraal,50.84531101978561,4.35675831766839
L 01,4954,Tilleur,50.619325790518765,5.52959613022457
L B9,3255,Baulers,50.61231055874444,4.350260827251606
L 23,2876,Lier,51.13604368651541,4.561775772658214
L 27,2776,Sint-Niklaas,51.17159935285642,4.143282196338587
L G1,755,Zingem,50.90911962391627,3.646473939714823
IC 12,404,Haren-Zuid,50.889616892134654,4.415076991166356
L 11,6077,Paliseul,49.89495830705849,5.119206133526989
IC 29,3602,Kortenberg,50.89300415046401,4.543312926825426
L B2-1,3676,Ruisbroek,50.79177235834205,4.295521156543186
L G3,655,Gent-Sint-Pieters,51.03551971701421,3.710101315832923
IC 21,4126,Oudegem,51.014737627992446,4.062437122289404
L B8-4,6555,Brussel-Zuid,50.83580082886068,4.336052466325346
IC 04-1,704,De Pinte,50.998952524822585,3.655383901672195
L B6,1577,Brussel-Noord,50.85959959838314,4.361252318634824
L B6,1576,Idegem,50.801685791171266,3.921425440783262
L B5-2,3576,Weerde,50.977243209834526,4.471087335301695
IC 19-1,927,Ronet,50.457655320725806,4.828601683088753
L B5-2,3555,Mouterij,50.83101229975816,4.378599139352779
IC 25,3826,Couillet,50.39264488205441,4.46933253671293
IC 03,1527,Brussel-Congres,50.85178018311057,4.362219760072247
L B8-1,3976,Brussel-Zuid,50.83580082886068,4.336052466325346
IC 19-1,905,Doornik,50.615141816804844,3.388492484343276
IC 06-2,3726,Brussel-Noord,50.85959959838314,4.361252318634824
L A3,2976,Geel,51.169052549858385,4.989631494192635
IC 02,1826,Lokeren-Oost,51.10977280180321,3.991494840923161
IC 19-1,927,Flawinne,50.456249957652616,4.806300471605369
IC 06-1,1904,Ruisbroek,50.79177235834205,4.295521156543186
IC 23-1,2328,Anderlecht,50.817918890620895,4.29153935389493
IC 14,1704,Brussel-Centraal,50.84531101978561,4.35675831766839
IC 18,2427,Luik-Carré,50.64016117047732,5.561580820714428
L B10-1,2076,Sint-Agatha-Berchem,50.873033681208796,4.290747342200437
L B1-2,1953,Mortsel-Liersesteenweg,51.169548577434576,4.469151255029592
L 29,4876,Lens,50.55912879254978,3.903285755628561
IC 26,3204,Opzullik,50.663205398063035,3.937245875917736
IC 25,3805,Nimy,50.47176943541776,3.95653982987247
L B20-1,3055,Florival,50.761456831505605,4.654204552702843
IC 32,826,Lichtervelde,51.025212177341054,3.126819220887453
L 13-1,5855,Habay,49.7182543711221,5.632255946759036
L L4,5176,Ans,50.66119033371017,5.509696653841267
L L1-1,5275,Luik-Guillemins,50.62555824033023,5.565379651677738
IC 23-2,2804,Brussel-Congres,50.85178018311057,4.362219760072247
IC 13,5105,Kortrijk,50.82441338246862,3.267774528680328
IC 01,527,Diegem,50.89062008445345,4.441952580833079
IC 26,3226,Herseaux,50.71428726455946,3.24481180953509
IC 10,4325,Mortsel,51.18289070974223,4.448811507867791
IC 01,527,Zaventem,50.885632548337114,4.469909600155111
IC 29,3603,Aalst,50.94312325212488,4.038683507111515
IC 05,4505,Obaix-Buzet,50.53576499907677,4.363632083286799
IC 30,4205,Herentals,51.18107296652878,4.828554945607912
IC 04-1,705,Antwerpen-Berchem,51.1988702961587,4.432979473543215
IC 29,3602,Kortenberg-Goederen,50.893766016593474,4.552069735832903
IC 01,528,Pepinster,50.56851509165158,5.810268537289398
L B8-4,6576,Watermaal,50.80971059066153,4.399853339445608
IC 12,404,Diegem,50.89062008445345,4.441952580833079
IC 29,3628,Brussel-Kapellekerk,50.841176483587425,4.347842850133666
L 29,4855,Lessen,50.71290774870706,3.836861179155217
L C4,3926,Philippeville,50.191612712480655,4.536051970925456
L 02,554,Schellebelle,51.00312616442199,3.92143307788236
L 15,5555,Liers-Faisceau,50.69978530450907,5.558491077982493
IC 11,3405,La Louvière-Centrum,50.477715304331944,4.180068630195054
IC 04-1,726,Beervelde,51.087172443782855,3.879980395685934
L 04,4676,Blaton,50.505954521715246,3.66570591977767
IC 12,404,Zaventem,50.885632548337114,4.469909600155111
IC 01,527,Haren-Zuid,50.889616892134654,4.415076991166356
L 01,4976,Hermalle-sous-Huy,50.57190883954576,5.379497993919575
IC 29,3629,Ezemaal,50.77212949781888,4.994219913271197
L B8-4,6555,Brussel-Kapellekerk,50.841176483587425,4.347842850133666
IC 21,4126,Schoonaarde,51.003138571181125,4.011262908092702
IC 29,3602,Erps-Kwerps,50.89654505809275,4.584930600736926
IC 12,405,De Pinte,50.998952524822585,3.655383901672195
L B10-2,3855,Thurn en Taxis,50.87155655999172,4.340863745355737
IC 14,1727,Vertrijk,50.83594652922674,4.836594370794067
IC 06-1,1905,Doornik,50.615141816804844,3.388492484343276
L B4,2155,Muizen,51.00823700109542,4.514109018598967
L B6,1577,Brussel-Congres,50.85178018311057,4.362219760072247
L B1-1,1777,Antwerpen-Berchem,51.1988702961587,4.432979473543215
IC 03,1528,Sint-Truiden,50.81768876585601,5.176520546000151
IC 31,3126,Vilvoorde,50.92414359820823,4.432813750239998
L B2-2,3755,Buizingen,50.75154826326621,4.258657550563639
L B19,4005,Marchienne-au-Pont,50.41221701003429,4.394312434115766
IC 07,2003,Antwerpen-Luchtbal,51.24356131845809,4.424880242352095
IC 18,2426,Namen,50.46920536707373,4.862754782172303
IC 08,2627,Schulen-Sas,50.963577095654976,5.188162889720117
L B3,2254,Brussel-Centraal,50.84531101978561,4.35675831766839
L B1-2,1954,Brussel-Congres,50.85178018311057,4.362219760072247
IC 20,2204,Brussel-Zuid,50.83580082886068,4.336052466325346
L B3,2277,Merchtem,50.95391293799017,4.223681249280842
IC 08,2627,Schulen,50.96418013482577,5.18542062549714
IC 14,1704,Brussel-Congres,50.85178018311057,4.362219760072247
IC 04-1,727,Bissegem,50.82579327658622,3.224088411817595
L 29,4855,Houraing,50.702881501429985,3.835231437708677
L 02,555,Beernem,51.127984351343564,3.329867037752411
IC 12,404,Nossegem,50.88344233385105,4.506060556822931
IC 05,4526,Brussel-Zuid,50.83580082886068,4.336052466325346
L 11,6077,Carlsbourg,49.903721616182835,5.09754707829283
L 02,576,Gent-Sint-Pieters,51.03551971701421,3.710101315832923
IC 21,4126,Wichelen,51.001758503990175,3.974883903141969
L C1,4555,Tilly,50.55665902549565,4.551641295072792
IC 04-1,704,Deinze-Wijksporen,50.9790461798649,3.540645659081197
IC 29,3602,Veltem,50.90055001720875,4.633517445095211
IC 25,3804,Flawinne,50.456249957652616,4.806300471605369
IC 23-2,2805,Aalter,51.09225779139449,3.447855382940146
IC 04-1,704,Deinze,50.9781328604359,3.535002801077202
IC 25,3805,Obourg-Marchandises,50.470021634500924,4.016410270720788
L 01,4954,Sclessin,50.61036517564539,5.55669507871075
IC 25,3805,Obourg,50.46980723102854,4.006727859438542
L B2-1,3676,Lot,50.765128381018265,4.272571084560079
L C2-1,4276,Morlanwelz,50.45819475895926,4.247606842005881
IC 06-2,3726,Brussel-Congres,50.85178018311057,4.362219760072247
IC 03,1527,Brussel-Centraal,50.84531101978561,4.35675831766839
IC 25,3826,Charleroi-Centraal,50.40419960613283,4.438439317373349
L G2,1875,Melle,51.002749921068165,3.796939037051605
IC 06-1,1904,Vorst-Zuid,50.810073408172734,4.310347515402428
IC 19-1,927,Floreffe,50.44348110262792,4.762999763962485
IC 25,3827,Hoei,50.527376421412576,5.234037173214917
L B6,1576,Zandbergen,50.80691967863315,3.956989676456527
L B5-2,3576,Eppegem,50.95840721352074,4.457499467095007
IC 02,1826,Lokeren,51.1070280724398,3.985383235145282
L B6,1577,Brussel-Centraal,50.84531101978561,4.35675831766839
L B5-2,3555,Brussel-Luxemburg,50.8388378181944,4.373972450132626
IC 31,3126,Buda,50.90808941401188,4.417587678075591
IC 20,2204,Brussel-Kapellekerk,50.841176483587425,4.347842850133666
L B3,2254,Brussel-Congres,50.85178018311057,4.362219760072247
IC 07,2028,Essen,51.46273699668126,4.451116949102328
IC 20,2227,Wezemaal,50.95636089869388,4.748012297469645
IC 07,2003,Antwerpen-Noorderdokken,51.261690357038965,4.427946720982024
IC 28,3027,Aarsele,50.98449587775488,3.41837146644795
L B6,1554,Edingen,50.69722134520999,4.047260476616265
L G3,655,Gentbrugge-Perron C.W.,51.029577695344535,3.752448334641758
IC 25,3804,Ronet,50.457655320725806,4.828601683088753
L B8-4,6555,Brussel-Centraal,50.84531101978561,4.35675831766839
IC 12,404,Kortenberg,50.89300415046401,4.543312926825426
L 04,4676,Harchies,50.48205917063363,3.699302076649094
IC 26,3228,Zele,51.073037159646034,4.042379417228101
L B20-1,3055,Pecrot,50.779266845086774,4.651601336707822
IC 01,528,Nessonvaux,50.57198592493546,5.741746104791544
L G1,755,Gavere-Asper,50.930582049355856,3.639434052959724
IC 05,4504,Mechelen,51.01761866620954,4.483579828080118
IC 29,3602,Herent,50.90358929255643,4.672141055672479
L 01,4976,Haute-Flône,50.55424859743379,5.331294580631765
IC 01,527,Schaarbeek,50.87869266989909,4.378431524039678
L 15,5577,Melreux-Hotton,50.283600345297494,5.440352546498348
L B8-1,3955,Ede,50.91099162785289,3.987780754836433
L B9,3255,Lillois,50.64367353246769,4.363394702678375
IC 01,504,Anderlecht,50.817918890620895,4.29153935389493
IC 30,4205,Wolfstee,51.16893689590626,4.789732769538759
IC 01,528,Fraipont,50.56512345525054,5.723431941853723
IC 23-2,2825,Heist,51.334177499078464,3.240489638663327
L C1,4555,Tilly-Garage,50.55294735706996,4.550490586788605
IC 13,5127,Schaarbeek,50.87869266989909,4.378431524039678
L B19,4027,Brussels Airport - Zaventem,50.89642423705851,4.48395784718869
L 24,4127,Leuven,50.88136571115078,4.716208512981546
L L4,5176,Bierset-Awans,50.65843789782589,5.460786562650455
L 02,554,Wichelen,51.001758503990175,3.974883903141969
IC 29,3603,Erembodegem,50.91929248249657,4.055478044299816
IC 11,3405,La Louvière-Industriestation,50.48597883133482,4.193672918052559
L 29,4876,Cambron-Casteau,50.58696925909204,3.873974629508698
IC 04-1,705,Antwerpen-Zuid,51.19721428415948,4.391779006927757
L B2-1,3677,Herent,50.90358929255643,4.672141055672479
IC 25,3805,Havré,50.47086130374264,4.058356446670643
IC 23-2,2805,Bellem,51.08372389725801,3.487287359353551
IC 30,4226,Antwerpen-Centraal,51.216862033537794,4.421083629947415
IC 10,4326,Lommel,51.211527124043826,5.310537299130095
IC 10,4325,Antwerpen-Berchem,51.1988702961587,4.432979473543215
L B10-2,3855,Simonis,50.86599657853117,4.334138582968338
IC 06-2,3705,'s-Gravenbrakel,50.60484523104407,4.138162426655214
L B1-1,1777,Mortsel,51.18289070974223,4.448811507867791
L B6,1576,Appelterre,50.81314095122116,3.97235371963076
IC 19-1,927,Franière,50.439609337705065,4.733609958418976
IC 03,1527,Brussel-Kapellekerk,50.841176483587425,4.347842850133666
L B6,1577,Brussel-Kapellekerk,50.841176483587425,4.347842850133666
IC 23-1,2303,Zottegem,50.86909906459784,3.814701035934551
IC 25,3827,Statte,50.528178167667285,5.21961650061351
L B2-2,3755,Lot,50.765128381018265,4.272571084560079
L B1-1,1776,Brussel-Noord,50.85959959838314,4.361252318634824
L B1-2,1977,Mechelen,51.01761866620954,4.483579828080118
L B3,2277,Mollem,50.932896546874765,4.216581185073014
IC 20,2205,Merelbeke,51.020057593681734,3.764835020911601
L B10-1,2076,Jette,50.88120457651592,4.332923410788644
IC 06-1,1927,Zaventem,50.885632548337114,4.469909600155111
L B1-2,1953,Mortsel,51.18289070974223,4.448811507867791
IC 11,3427,Duffel,51.091684329214274,4.492767295335319
IC 20,2228,Bilzen,50.868680426197486,5.509372414884934
L 01,4976,Amay,50.54592191603607,5.320609487870715
L 23,2876,Boechout,51.16382800159388,4.49404699525959
IC 01,528,Olne,50.56639308394579,5.703133531852481
L B2-1,3676,Buizingen,50.75154826326621,4.258657550563639
IC 15,4926,Schulen-Sas,50.963577095654976,5.188162889720117
L 29,4855,Papegem,50.687655087352056,3.824299419853787
L 04,4676,Ville-Pommeroeul,50.464526837178994,3.724432978367793
L 15,5576,Luik-Guillemins,50.62555824033023,5.565379651677738
IC 32,826,Torhout,51.064712250785384,3.105750907108637
L L1-1,5275,Luik-Carré,50.64016117047732,5.561580820714428
IC 12,428,Welkenraedt,50.65937064749165,5.974267220223243
L C2-1,4276,Carnières,50.44790381004631,4.264406625278332
L G3,655,Gentbrugge,51.03878033373764,3.756083021687756
IC 21,4104,Mechelen,51.01761866620954,4.483579828080118
IC 12,404,Erps-Kwerps,50.89654505809275,4.584930600736926
IC 21,4126,Schellebelle,51.00312616442199,3.92143307788236
L B8-4,6576,Etterbeek,50.8213075599027,4.39049871944438
L B8-4,6555,Brussel-Congres,50.85178018311057,4.362219760072247
L B4,2155,Hofstade,50.988539649222346,4.498451705048018
IC 25,3827,Bas-Oha,50.52248172084146,5.191103060084089
IC 06-2,3726,Brussel-Centraal,50.84531101978561,4.35675831766839
L B8-1,3977,Ottignies,50.671773574303224,4.570373990520092
IC 19-1,905,Antoing,50.569648067428595,3.451351534219263
L A3,2976,Olen,51.17402976913898,4.902499251852356
L B19,4005,Roux,50.44308266140329,4.394000597539677
IC 31,3126,Schaarbeek,50.87869266989909,4.378431524039678
L B5-2,3555,Brussel-Schuman,50.842848617923735,4.380023585783107
IC 23-1,2326,Brugge,51.19727306937378,3.216852878213191
IC 26,3205,Moeskroen,50.73833321248668,3.225382514546805
L B1-1,1776,Brussel-Congres,50.85178018311057,4.362219760072247
L B8-1,3976,Anderlecht,50.817918890620895,4.29153935389493
L G2,1875,Merelbeke,51.020057593681734,3.764835020911601
IC 08,2605,Antwerpen-Centraal,51.216862033537794,4.421083629947415
L B1-2,1954,Brussel-Noord,50.85959959838314,4.361252318634824
IC 07,2004,Brussel-Zuid,50.83580082886068,4.336052466325346
IC 03,1503,Vertrijk,50.83594652922674,4.836594370794067
L B10-1,2076,Bockstael,50.87943983166831,4.348514000855896
IC 20,2204,Brussel-Centraal,50.84531101978561,4.35675831766839
IC 14,1704,Brussel-Noord,50.85959959838314,4.361252318634824
IC 08,2604,Wezemaal,50.95636089869388,4.748012297469645
IC 11,3427,Sint-Katelijne-Waver,51.07092770112268,4.495807348133646
IC 20,2228,Bilzen-Wijkspoor,50.87164775246125,5.509354730128338
IC 23-2,2804,Brussel-Noord,50.85959959838314,4.361252318634824
IC 30,4205,Bouwel,51.16584351392913,4.747581819970593
IC 05,4526,Ukkel-Stalle,50.80248548912509,4.323778171903269
IC 05,4526,Vorst-Oost,50.81020033751361,4.320981153478699
L 15,5555,Liers,50.69817964040005,5.566911104405785
IC 12,404,Veltem,50.90055001720875,4.633517445095211
IC 01,528,Trooz,50.57328744502597,5.688448772904129
IC 15,4926,Schulen,50.96418013482577,5.18542062549714
L G3,676,Lokeren,51.1070280724398,3.985383235145282
L 23,2854,Aarschot,50.98449635540834,4.823698347886938
IC 25,3805,Thieu,50.46967181239604,4.098467909523017
L B20-1,3055,Sint-Joris-Weert,50.80129671879586,4.651860787104162
IC 23-2,2805,Hansbeke,51.07270818510425,3.537446874067181
IC 04-1,726,Lokeren,51.1070280724398,3.985383235145282
L 11,6077,Graide,49.93372052397986,5.043616894147011
IC 05,4504,Mechelen-Nekkerspoel,51.030011706650285,4.490206757525486
L 02,555,Maria-Aalter,51.10757473497731,3.386700586663826
IC 29,3628,Brussel-Zuid,50.83580082886068,4.336052466325346
L B2-1,3677,Veltem,50.90055001720875,4.633517445095211
L 27,2776,Temse,51.12598622728998,4.221148549457797
L B10-2,3855,Brussel-West,50.85205607050756,4.322817267052568
L 02,554,Schoonaarde,51.003138571181125,4.011262908092702
L B8-1,3955,Haaltert,50.907066641303196,4.021716617534101
IC 10,4326,Balen-Werkplaatsen,51.204947001662255,5.245949995002284
IC 25,3805,Bracquegnies,50.47436212331982,4.126350513636451
L C1,4555,Ligny,50.51135366053688,4.566056594307918
L 13-1,5855,Stockem,49.69093190226452,5.767977032812465
IC 23-2,2825,Duinbergen,51.338271911609404,3.26293506332294
L 29,4876,Brugelette,50.593960141371475,3.852911657073794
IC 26,3226,Moeskroen,50.73833321248668,3.225382514546805
IC 12,404,Herent,50.90358929255643,4.672141055672479
L G1,755,Eke-Nazareth,50.96156491571629,3.627889375856963
L C2-1,4254,Manage,50.50617164755824,4.23475247690034
L 04,4655,Bergen,50.454436770348934,3.942380575452241
IC 05,4526,Ukkel-Kalevoet,50.79221449555428,4.331745965347926
IC 04-1,705,Zwijndrecht,51.213640244311954,4.324671903684774
L 02,576,Drongen,51.047503146402754,3.653586159319735
IC 06-2,3726,Brussel-Kapellekerk,50.841176483587425,4.347842850133666
L B2-2,3755,Ruisbroek,50.79177235834205,4.295521156543186
IC 19-1,905,Maubray,50.5473596412106,3.496016879443089
IC 06-1,1905,Havinnes,50.61882981688033,3.49566068071467
IC 19-1,904,Charleroi-Centraal,50.40419960613283,4.438439317373349
L B6,1576,Eichem,50.82390795063365,3.993605086038247
IC 25,3827,Java,50.51387710977643,5.160698724076279
IC 14,1705,Bergen,50.454436770348934,3.942380575452241
IC 07,2028,Wildert,51.4275703117922,4.463422810773211
IC 07,2003,Ekeren,51.27723574066446,4.432825280541328
IC 18,2426,Rhisnes,50.4993004915618,4.801803854068583
IC 18,2426,Rhisnes-Sas,50.50059749700802,4.799814589897698
IC 18,2427,Luik-Guillemins,50.62555824033023,5.565379651677738
L B3,2254,Brussel-Noord,50.85959959838314,4.361252318634824
L B1-2,1953,Antwerpen-Berchem,51.1988702961587,4.432979473543215
IC 07,2004,Brussel-Kapellekerk,50.841176483587425,4.347842850133666
IC 06-1,1927,Diegem,50.89062008445345,4.441952580833079
IC 18,2426,Saint-Denis-Bovesse,50.521297001857974,4.767791995102788
IC 03,1505,Blankenberge,51.31228295182011,3.133562308706298
L B3,2277,Asse,50.90670257176685,4.208230395126666
L B3,2255,Zottegem,50.86909906459784,3.814701035934551
IC 20,2204,Brussel-Congres,50.85178018311057,4.362219760072247
IC 08,2627,Diest,50.99342002336958,5.050066472491223
IC 21,4126,Wetteren,51.00149929084834,3.881915592818523
L C1,4577,Namen,50.46920536707373,4.862754782172303
IC 21,4104,Muizen,51.00823700109542,4.514109018598967
IC 01,528,Chaudfontaine,50.58695623775602,5.644168864995391
L 01,4976,Ampsin,50.53917375822986,5.288862316887595
IC 05,4526,Linkebeek,50.77339212483393,4.339918296891916
L B2-1,3655,'s-Gravenbrakel,50.60484523104407,4.138162426655214
IC 05,4505,Nijvel,50.6004932591792,4.335288481441468
IC 01,527,Brussel-Noord,50.85959959838314,4.361252318634824
IC 23-2,2805,Landegem,51.06421597718289,3.57704576219589
IC 13,5105,Vichte,50.833503060446695,3.392847172084267
IC 05,4504,Sint-Katelijne-Waver,51.07092770112268,4.495807348133646
L C4,3926,Yves-Gomezée,50.237995850240075,4.490419768073481
IC 06-1,1904,Brussel-Zuid,50.83580082886068,4.336052466325346
IC 06-2,3705,Hennuyères-Garage,50.6479509231809,4.173327027471045
IC 06-2,3705,Hennuyères,50.65091444999998,4.176132141679284
L B1-1,1777,Mortsel-Liersesteenweg,51.169548577434576,4.469151255029592
IC 23-1,2303,Hillegem,50.89129484430886,3.857476893082532
IC 19-1,905,Callenelle,50.527311586615326,3.526278070673758
IC 25,3826,Marchienne-au-Pont,50.41221701003429,4.394312434115766
L B19,4005,Courcelles-Motte,50.46202986102244,4.400412086453594
IC 02,1826,Beervelde,51.087172443782855,3.879980395685934
IC 19-1,927,Moustier,50.452728270830725,4.693813691441016
IC 19-1,927,Moustier-Garage,50.452251562650595,4.676398912033878
IC 23-1,2303,Herzele,50.89692470109805,3.879519908406242
IC 23-1,2328,Liedekerke,50.882547620740944,4.095286581223728
L B4,2155,Eppegem,50.95840721352074,4.457499467095007
L B9,3277,Leuven,50.88136571115078,4.716208512981546
L B1-1,1776,Brussel-Centraal,50.84531101978561,4.35675831766839
IC 19-1,927,Ham-sur-Sambre,50.45281278225799,4.672912869837899
IC 20,2227,Herent,50.90358929255643,4.672141055672479
IC 18,2426,Beuzet,50.532974982431014,4.750194075854363
IC 20,2205,Melle,51.002749921068165,3.796939037051605
IC 07,2003,Sint-Mariaburg,51.29267549635015,4.43456517971565
L 15,5577,Barvaux,50.349504130012015,5.502270043642818
IC 28,3028,De Panne,51.07726613110537,2.602401090227277
IC 26,3204,Edingen,50.69722134520999,4.047260476616265
IC 30,4226,Antwerpen-Berchem,51.1988702961587,4.432979473543215
L L4,5176,Voroux,50.6606950187532,5.431053889364091
IC 04-1,726,Lokeren-Oost,51.10977280180321,3.991494840923161
IC 05,4504,Duffel,51.091684329214274,4.492767295335319
L B8-4,6555,Brussel-Noord,50.85959959838314,4.361252318634824
L 11,6055,Namen,50.46920536707373,4.862754782172303
IC 30,4205,Nijlen,51.15960165747347,4.664476042560455
IC 29,3629,Tienen,50.8079314339937,4.925636678946889
L G3,655,Gent-Dampoort,51.056728987048956,3.740515250330524
IC 05,4526,Holleken,50.767015163038835,4.354770803816823
L C2-1,4276,Piéton,50.43511682114374,4.286129350500978
L 29,4855,Rebaix,50.66104886044587,3.793534075384883
IC 23-2,2804,Schaarbeek,50.87869266989909,4.378431524039678
L B8-4,6576,Brussel-Luxemburg,50.8388378181944,4.373972450132626
IC 01,505,Brugge,51.19727306937378,3.216852878213191
IC 04-1,704,Waregem,50.89242835003542,3.42559831780833
L 13-1,5855,Viville,49.68828394053227,5.785474662429645
L C1,4576,Charleroi-Centraal,50.40419960613283,4.438439317373349
L 29,4876,Mévergnies-Attre,50.600273014504275,3.832948437056826
L 24,4127,Wijgmaal,50.9233034469938,4.700698413816125
IC 28,3004,Gent-Sint-Pieters,51.03551971701421,3.710101315832923
IC 21,4104,Hever,50.99640059409282,4.540771399949431
IC 29,3628,Anderlecht,50.817918890620895,4.29153935389493
IC 25,3804,Namen,50.46920536707373,4.862754782172303
IC 12,428,Dolhain-Gileppe,50.62692515023561,5.93868646551414
IC 04-1,705,Melsele,51.21082656268172,4.288506223071698
L B20-1,3055,Oud-Heverlee,50.835700608309,4.653595847154261
L 13-2,5976,Bertrix,49.85232574338336,5.268150158432898
IC 29,3602,Leuven,50.88136571115078,4.716208512981546
L B2-1,3676,Halle,50.733060256649814,4.239823954453461
IC 05,4526,Sint-Genesius-Rode,50.74811387437947,4.361939405198446
L 15,5576,Luik-Carré,50.64016117047732,5.561580820714428
L 04,4676,Saint-Ghislain,50.44273476444009,3.820015769849533
IC 29,3603,Denderleeuw,50.891621170603955,4.071431566061722
L 11,6055,Namur-Herbatte,50.469169910735076,4.869133583242475
L B8-1,3955,Welle,50.90304992098791,4.05086651791031
L B19,4027,Haren,50.888870897054744,4.420030838936388
L B9,3255,Eigenbrakel,50.68475914261351,4.37582344502392
IC 01,528,Chênée,50.60835327318151,5.614856781125281
L 23,2876,Mortsel,51.18289070974223,4.448811507867791
IC 01,527,Brussel-Congres,50.85178018311057,4.362219760072247
L 15,5555,Milmort,50.69342290621258,5.599557700763655
IC 11,3405,Familleureux,50.519411502375476,4.211654529557394
L B5-2,3555,Meiser,50.854757009079435,4.394274208667772
IC 19-1,905,Péruwelz,50.51361346641127,3.59206286807832
IC 06-2,3705,Tubeke,50.69169220545364,4.20581147629095
L B2-2,3755,Vorst-Zuid,50.810073408172734,4.310347515402428
IC 19-1,927,Jemeppe-sur-Sambre-Marchandise,50.44797745287747,4.657785895311827
IC 03,1527,Brussel-Zuid,50.83580082886068,4.336052466325346
IC 14,1728,Luik-Guillemins,50.62555824033023,5.565379651677738
IC 14,1727,Leuven,50.88136571115078,4.716208512981546
L B5-2,3576,Vilvoorde,50.92414359820823,4.432813750239998
IC 19-1,927,Jemeppe-sur-Sambre,50.45094942294263,4.662626762258042
IC 23-1,2303,Terhagen,50.90182412616037,3.897482385381147
IC 19-1,904,Couillet,50.39264488205441,4.46933253671293
IC 06-1,1904,Brussel-Kapellekerk,50.841176483587425,4.347842850133666
L B6,1577,Brussel-Zuid,50.83580082886068,4.336052466325346
L B1-2,1954,Schaarbeek,50.87869266989909,4.378431524039678
L B1-2,1977,Weerde,50.977243209834526,4.471087335301695
IC 07,2005,Charleroi-Centraal,50.40419960613283,4.438439317373349
IC 11,3427,Mechelen-Nekkerspoel,51.030011706650285,4.490206757525486
IC 28,3027,Deinze,50.9781328604359,3.535002801077202
IC 14,1704,Schaarbeek,50.87869266989909,4.378431524039678
L 36,1655,Kortrijk,50.82441338246862,3.267774528680328
IC 02,1805,Gent-Sint-Pieters,51.03551971701421,3.710101315832923
IC 06-1,1926,Aat,50.627030183302196,3.776393685659921
IC 08,2626,Mechelen,51.01761866620954,4.483579828080118
IC 06-1,1927,Haren-Zuid,50.889616892134654,4.415076991166356
IC 07,2027,Schaarbeek,50.87869266989909,4.378431524039678
IC 18,2427,Sclessin,50.61036517564539,5.55669507871075
IC 07,2004,Brussel-Centraal,50.84531101978561,4.35675831766839
IC 20,2227,Veltem,50.90055001720875,4.633517445095211
IC 08,2605,Antwerpen-Berchem,51.1988702961587,4.432979473543215
IC 18,2426,Lonzée,50.55197706629923,4.720151428541858
IC 20,2205,Kwatrecht,50.99155010054474,3.833335262496046
L 13-2,5977,Messancy,49.594027856871506,5.81831958125903
IC 01,528,Angleur,50.61253000192086,5.600948994820556
L C1,4555,Fleurus,50.483141103888876,4.544831466361379
IC 05,4504,Kontich-Lint,51.13368368793974,4.47689680687504
IC 21,4126,Kwatrecht,50.99155010054474,3.833335262496046
L C2-1,4254,Godarville,50.49295177248584,4.290252782915575
L 02,554,Oudegem,51.014737627992446,4.062437122289404
L C2-1,4255,Charleroi-Centraal,50.40419960613283,4.438439317373349
IC 04-1,726,Sinaai,51.143500701126385,4.068856389093756
IC 05,4526,De Hoek,50.73924115834706,4.370342368877128
IC 04-1,705,Beveren(Waas),51.208473876872844,4.260777895162216
IC 23-2,2805,Drongen,51.047503146402754,3.653586159319735
L 26,4455,Bergen,50.454436770348934,3.942380575452241
IC 25,3804,Namur-Herbatte,50.469169910735076,4.869133583242475
IC 30,4205,Kessel,51.151056001612034,4.618457995215415
L B2-1,3677,Erps-Kwerps,50.89654505809275,4.584930600736926
L 02,555,Aalter,51.09225779139449,3.447855382940146
IC 25,3827,Andenne,50.496828765415096,5.095965480077196
L 27,2755,Willebroek,51.06641691397172,4.356072252256531
L B6,1576,Ninove,50.83945938950777,4.026263271536687
IC 31,3126,Brussel-Noord,50.85959959838314,4.361252318634824
IC 03,1528,Landen,50.7478945465236,5.079627434738533
IC 26,3205,Herseaux,50.71428726455946,3.24481180953509
L B1-1,1776,Brussel-Kapellekerk,50.841176483587425,4.347842850133666
L A3,2976,Herentals,51.18107296652878,4.828554945607912
IC 06-2,3705,Lembeek,50.71511214097718,4.221567770089727
L B5-2,3555,Schaarbeek-Josaphat,50.86036295580361,4.395006896335754
L B8-1,3977,Profondsart,50.69384598089478,4.549496108321164
IC 25,3827,Château-de-Seilles,50.497212725023616,5.081752631616731
L B1-1,1777,Hove,51.15406191789155,4.465214254147384
L B6,1576,Ninove-Wijkspoor,50.840910449255475,4.03458402182942
IC 23-1,2303,Burst,50.90690477967195,3.920956497963406
IC 23-1,2327,Kortrijk,50.82441338246862,3.267774528680328
IC 03,1526,Brugge,51.19727306937378,3.216852878213191
IC 18,2427,Tilleur,50.619325790518765,5.52959613022457
IC 14,1704,Haren-Zuid,50.889616892134654,4.415076991166356
L B10-1,2076,Brussel-Noord,50.85959959838314,4.361252318634824
IC 20,2204,Brussel-Noord,50.85959959838314,4.361252318634824
L B1-2,1955,Nijvel,50.6004932591792,4.335288481441468
L B3,2254,Bockstael,50.87943983166831,4.348514000855896
L B3,2255,Hillegem,50.89129484430886,3.857476893082532
IC 14,1705,Ghlin,50.487523509938555,3.90639438934079
IC 20,2228,Diepenbeek,50.9117654559103,5.41632753993968
IC 20,2227,Erps-Kwerps,50.89654505809275,4.584930600736926
IC 28,3027,Deinze-Wijksporen,50.9790461798649,3.540645659081197
IC 07,2028,Kalmthout,51.389739416824185,4.466700911173807
IC 08,2627,Zichem,51.006658165424646,4.987321399197209
L 29,4876,Maffle,50.61404860437613,3.800494581194257
L 04,4655,Jemappes,50.45256323711496,3.885169785310784
L 23,2854,Wezemaal,50.95636089869388,4.748012297469645
IC 05,4526,Waterloo,50.715533973277154,4.383453531843166
L G1,755,De Pinte,50.998952524822585,3.655383901672195
IC 15,4926,Diest,50.99342002336958,5.050066472491223
IC 13,5105,Anzegem,50.826216033991116,3.495470091998172
IC 11,3405,Marche-lez-Ecaussinnes,50.54620487800974,4.177102420598815
IC 30,4226,Mortsel,51.18289070974223,4.448811507867791
L 02,576,Landegem,51.06421597718289,3.57704576219589
L 24,4127,Hambos,50.944395574176696,4.663253957778934
IC 12,405,Gent-Sint-Pieters,51.03551971701421,3.710101315832923
L B20-2,6455,Ottignies,50.671773574303224,4.570373990520092
IC 21,4126,Melle,51.002749921068165,3.796939037051605
IC 32,826,Zedelgem,51.126381461398005,3.163480495051282
IC 04-1,726,Belsele,51.15105293420193,4.088971325808107
IC 01,504,Brussel-Zuid,50.83580082886068,4.336052466325346
L L4,5176,Fexhe-le-Haut-Clocher,50.66429943408551,5.397266517996256
L B8-4,6576,Brussel-Schuman,50.842848617923735,4.380023585783107
L B20-1,3076,Leuven,50.88136571115078,4.716208512981546
L 27,2776,Bornem,51.09898501545822,4.240696490818711
L C1,4577,Ronet,50.457655320725806,4.828601683088753
IC 13,5127,Brussel-Noord,50.85959959838314,4.361252318634824
IC 05,4504,Hove,51.15406191789155,4.465214254147384
L B19,4027,Bordet,50.8777742574513,4.410014404476271
IC 28,3028,Koksijde,51.078708344787216,2.654140285486822
L B2-1,3655,Hennuyères-Garage,50.6479509231809,4.173327027471045
L C1,4576,Charleroi-West,50.41220705285437,4.437641137969656
L B2-1,3677,Kortenberg-Goederen,50.893766016593474,4.552069735832903
L C2-1,4276,Forchies,50.433128757386235,4.323472828215522
L B2-1,3676,Lembeek,50.71511214097718,4.221567770089727
IC 31,3105,Brussel-Zuid,50.83580082886068,4.336052466325346
L G3,676,Beervelde,51.087172443782855,3.879980395685934
IC 01,505,Oostkamp,51.15421490987769,3.257626153621203
L B20-2,6476,Waver,50.71613796385702,4.605127669873097
IC 26,3226,Lauwe,50.7877911292868,3.202325904952008
IC 01,527,Brussel-Centraal,50.84531101978561,4.35675831766839
L 15,5576,Luik-Sint-Lambertus,50.64694935205776,5.57261263700804
L 10-2,976,Libramont,49.920246581133696,5.378998507038368
IC 21,4104,Boortmeerbeek,50.98190383220303,4.57399271193005
IC 05,4504,Mortsel-Oude God,51.171808099384776,4.455388660748518
IC 05,4504,Mortsel-Deurnesteenweg,51.18231715581698,4.447187644772542
IC 14,1727,Herent,50.90358929255643,4.672141055672479
IC 19-1,905,Blaton,50.505954521715246,3.66570591977767
IC 31,3126,Brussel-Congres,50.85178018311057,4.362219760072247
IC 25,3826,Forchies,50.433128757386235,4.323472828215522
L A4-2,2676,Lokeren,51.1070280724398,3.985383235145282
L 03,2476,Hasselt,50.93094539063631,5.326071324066093
IC 06-2,3705,Halle,50.733060256649814,4.239823954453461
IC 06-1,1905,Leuze,50.60055276661659,3.616784177194411
IC 06-2,3726,Brussel-Zuid,50.83580082886068,4.336052466325346
L B5-2,3555,Evere,50.8682065685372,4.401355062293686
IC 06-1,1904,Brussel-Centraal,50.84531101978561,4.35675831766839
L B6,1577,Vorst-Zuid,50.810073408172734,4.310347515402428
IC 19-1,904,Châtelet,50.41014315711594,4.521411822216678
L B8-1,3977,Rixensart,50.71351481096948,4.530823605161436
IC 19-1,927,Auvelais,50.449170411135086,4.63070038869451
L B6,1555,Denderleeuw,50.891621170603955,4.071431566061722
IC 08,2605,Mortsel-Deurnesteenweg,51.18231715581698,4.447187644772542
IC 20,2227,Kortenberg,50.89300415046401,4.543312926825426
L S63-2,19827,Erquelinnes,50.30411129311053,4.113617375776282
IC 03,1503,Tienen,50.8079314339937,4.925636678946889
IC 08,2604,Aarschot,50.98449635540834,4.823698347886938
IC 07,2003,Kapellen,51.31359271091834,4.432805301554844
IC 07,2004,Brussel-Congres,50.85178018311057,4.362219760072247
IC 18,2427,Jemeppe-sur-Meuse,50.61841627390551,5.497799707765852
IC 18,2427,Pont-de-Seraing,50.619916699168094,5.511349156465087
L B1-2,1977,Eppegem,50.95840721352074,4.457499467095007
IC 08,2627,Testelt,51.009863921942355,4.945833786595188
IC 06-1,1927,Schaarbeek,50.87869266989909,4.378431524039678
IC 08,2626,Mechelen-Nekkerspoel,51.030011706650285,4.490206757525486
L B10-1,2076,Brussel-Congres,50.85178018311057,4.362219760072247
