route,train,station,latitude,longitude
L B19,4046,Brussels Airport - Zaventem,50.89642423705851,4.48395784718869
L B1-2,1995,Schaarbeek,50.87869266989909,4.378431524039678
L B1-2,1995,Brussel-Noord,50.85959959838314,4.361252318634824
L B19,4046,Haren,50.888870897054744,4.420030838936388
L B1-2,1995,Brussel-Congres,50.85178018311057,4.362219760072247
L B19,4046,Bordet,50.8777742574513,4.410014404476271
L B19,4046,Evere,50.8682065685372,4.401355062293686
L B1-2,1995,Brussel-Centraal,50.84531101978561,4.35675831766839
L B1-2,1995,Brussel-Kapellekerk,50.841176483587425,4.347842850133666
L B19,4046,Schaarbeek-Josaphat,50.86036295580361,4.395006896335754
L B19,4046,Meiser,50.854757009079435,4.394274208667772
L B19,4046,Brussel-Schuman,50.842848617923735,4.380023585783107
IC 08,2604,Antwerpen-Centraal,51.216862033537794,4.421083629947415
IC 01,527,Luik-Guillemins,50.62555824033023,5.565379651677738
IC 08,2604,Antwerpen-Berchem,51.1988702961587,4.432979473543215
L B19,4003,Brussel-Luxemburg,50.8388378181944,4.373972450132626
IC 01,504,Oostende,51.22794248315333,2.926625863197556
IC 08,2604,Mortsel-Deurnesteenweg,51.18231715581698,4.447187644772542
IC 08,2604,Mortsel-Oude God,51.171808099384776,4.455388660748518
L B19,4003,Brussel-Schuman,50.842848617923735,4.380023585783107
IC 01,527,Ans,50.66119033371017,5.509696653841267
IC 08,2604,Hove,51.15406191789155,4.465214254147384
IC 08,2604,Kontich-Lint,51.13368368793974,4.47689680687504
IC 01,527,Bierset-Awans,50.65843789782589,5.460786562650455
L B19,4003,Schaarbeek-Josaphat,50.86036295580361,4.395006896335754
L B19,4003,Meiser,50.854757009079435,4.394274208667772
L B19,4003,Evere,50.8682065685372,4.401355062293686
IC 08,2604,Duffel,51.091684329214274,4.492767295335319
IC 08,2604,Sint-Katelijne-Waver,51.07092770112268,4.495807348133646
IC 10,4325,Mol,51.19069542549062,5.114991873356337
IC 01,527,Voroux,50.6606950187532,5.431053889364091
IC 01,527,Fexhe-le-Haut-Clocher,50.66429943408551,5.397266517996256
L B19,4003,Bordet,50.8777742574513,4.410014404476271
L B19,4004,Nijvel,50.6004932591792,4.335288481441468
IC 06-1,1903,Brussel-Zuid,50.83580082886068,4.336052466325346
IC 08,2604,Mechelen-Nekkerspoel,51.030011706650285,4.490206757525486
IC 01,527,Momalle,50.6699148465472,5.367599886549959
IC 01,527,Remicourt,50.67864345114512,5.321422014482167
L B19,4004,Baulers,50.61231055874444,4.350260827251606
L B19,4003,Haren,50.888870897054744,4.420030838936388
IC 06-1,1903,Brussel-Kapellekerk,50.841176483587425,4.347842850133666
IC 01,527,Bleret,50.685313301749794,5.286061064312441
IC 01,527,Borgworm,50.69469090868593,5.248963056690451
IC 06-1,1903,Brussel-Centraal,50.84531101978561,4.35675831766839
IC 08,2604,Mechelen,51.01761866620954,4.483579828080118
IC 10,4325,Geel,51.169052549858385,4.989631494192635
IC 06-1,1903,Brussel-Congres,50.85178018311057,4.362219760072247
L B19,4004,Lillois,50.64367353246769,4.363394702678375
IC 01,504,Brugge,51.19727306937378,3.216852878213191
IC 10,4325,Olen,51.17402976913898,4.902499251852356
L B19,4003,Brussels Airport - Zaventem,50.89642423705851,4.48395784718869
IC 01,504,Oostkamp,51.15421490987769,3.257626153621203
IC 06-1,1903,Brussel-Noord,50.85959959838314,4.361252318634824
L B19,4003,Nossegem,50.88344233385105,4.506060556822931
L B19,4004,Eigenbrakel,50.68475914261351,4.37582344502392
IC 31,3105,Charleroi-Centraal,50.40419960613283,4.438439317373349
IC 01,504,Beernem,51.127984351343564,3.329867037752411
IC 02,1826,Antwerpen-Centraal,51.216862033537794,4.421083629947415
L B10-1,2076,Aalst,50.94312325212488,4.038683507111515
IC 01,527,Landen,50.7478945465236,5.079627434738533
IC 04-1,727,Poperinge,50.85444837837162,2.736306432736006
L B19,4003,Kortenberg,50.89300415046401,4.543312926825426
IC 29,3628,Leuven,50.88136571115078,4.716208512981546
L B19,4003,Erps-Kwerps,50.89654505809275,4.584930600736926
IC 06-1,1903,Schaarbeek,50.87869266989909,4.378431524039678
IC 01,504,Maria-Aalter,51.10757473497731,3.386700586663826
L L1-1,5275,Verviers-Centraal,50.587801914284064,5.854635277252846
IC 01,527,Neerwinden,50.76376087904074,5.036335028170957
IC 03,1504,Brugge,51.19727306937378,3.216852878213191
IC 06-2,3704,Brussel-Zuid,50.83580082886068,4.336052466325346
L B19,4004,Waterloo,50.715533973277154,4.383453531843166
IC 31,3105,Marchienne-au-Pont,50.41221701003429,4.394312434115766
IC 10,4325,Herentals,51.18107296652878,4.828554945607912
IC 06-1,1903,Haren-Zuid,50.889616892134654,4.415076991166356
L B19,4003,Veltem,50.90055001720875,4.633517445095211
IC 01,527,Ezemaal,50.77212949781888,4.994219913271197
IC 08,2604,Brussels Airport - Zaventem,50.89642423705851,4.48395784718869
L B10-1,2076,Erembodegem,50.91929248249657,4.055478044299816
IC 02,1826,Antwerpen-Berchem,51.1988702961587,4.432979473543215
IC 23-1,2303,Kortrijk,50.82441338246862,3.267774528680328
L B19,4003,Herent,50.90358929255643,4.672141055672479
L B19,4004,De Hoek,50.73924115834706,4.370342368877128
IC 06-2,3704,Brussel-Kapellekerk,50.841176483587425,4.347842850133666
IC 01,504,Aalter,51.09225779139449,3.447855382940146
IC 01,504,Bellem,51.08372389725801,3.487287359353551
IC 11,3405,Binche,50.408563854714735,4.172759557130057
IC 29,3628,Herent,50.90358929255643,4.672141055672479
IC 29,3628,Veltem,50.90055001720875,4.633517445095211
IC 31,3105,Roux,50.44308266140329,4.394000597539677
IC 08,2604,Nossegem,50.88344233385105,4.506060556822931
L L1-1,5275,Pepinster,50.56851509165158,5.810268537289398
IC 01,504,Hansbeke,51.07270818510425,3.537446874067181
IC 03,1504,Oostkamp,51.15421490987769,3.257626153621203
L B19,4004,Sint-Genesius-Rode,50.74811387437947,4.361939405198446
IC 31,3105,Courcelles-Motte,50.46202986102244,4.400412086453594
IC 10,4325,Wolfstee,51.16893689590626,4.789732769538759
IC 06-2,3704,Brussel-Centraal,50.84531101978561,4.35675831766839
IC 29,3628,Erps-Kwerps,50.89654505809275,4.584930600736926
IC 06-1,1903,Diegem,50.89062008445345,4.441952580833079
IC 10,4325,Bouwel,51.16584351392913,4.747581819970593
IC 08,2604,Kortenberg-Goederen,50.893766016593474,4.552069735832903
IC 02,1826,Antwerpen-Zuid,51.19721428415948,4.391779006927757
IC 08,2604,Kortenberg,50.89300415046401,4.543312926825426
IC 04-1,727,Ieper,50.847477690810365,2.876886293135154
IC 01,504,Landegem,51.06421597718289,3.57704576219589
IC 06-2,3704,Brussel-Congres,50.85178018311057,4.362219760072247
IC 29,3628,Kortenberg-Goederen,50.893766016593474,4.552069735832903
L B19,4004,Holleken,50.767015163038835,4.354770803816823
IC 29,3628,Kortenberg,50.89300415046401,4.543312926825426
IC 11,3405,Leval,50.43066476604268,4.211414215952779
IC 08,2604,Erps-Kwerps,50.89654505809275,4.584930600736926
L B10-1,2076,Denderleeuw,50.891621170603955,4.071431566061722
IC 01,527,Tienen,50.8079314339937,4.925636678946889
IC 29,3628,Nossegem,50.88344233385105,4.506060556822931
IC 03,1504,Beernem,51.127984351343564,3.329867037752411
IC 08,2604,Veltem,50.90055001720875,4.633517445095211
IC 01,504,Drongen,51.047503146402754,3.653586159319735
L L1-1,5275,Nessonvaux,50.57198592493546,5.741746104791544
IC 10,4325,Nijlen,51.15960165747347,4.664476042560455
L B19,4004,Linkebeek,50.77339212483393,4.339918296891916
IC 03,1504,Maria-Aalter,51.10757473497731,3.386700586663826
IC 06-2,3705,Bergen,50.454436770348934,3.942380575452241
IC 23-1,2303,Vichte,50.833503060446695,3.392847172084267
IC 08,2604,Herent,50.90358929255643,4.672141055672479
IC 02,1826,Zwijndrecht,51.213640244311954,4.324671903684774
L B10-1,2076,Liedekerke,50.882547620740944,4.095286581223728
IC 10,4325,Kessel,51.151056001612034,4.618457995215415
IC 06-2,3704,Brussel-Noord,50.85959959838314,4.361252318634824
IC 06-1,1903,Zaventem,50.885632548337114,4.469909600155111
IC 01,528,Welkenraedt,50.65937064749165,5.974267220223243
IC 31,3105,Luttre,50.50601206060288,4.384250449864734
L L1-1,5275,Fraipont,50.56512345525054,5.723431941853723
L B10-1,2076,Essene-Lombeek,50.882398692140114,4.115166601057234
IC 02,1826,Melsele,51.21082656268172,4.288506223071698
IC 23-1,2303,Anzegem,50.826216033991116,3.495470091998172
L 28,855,Kortrijk,50.82441338246862,3.267774528680328
IC 06-2,3704,Schaarbeek,50.87869266989909,4.378431524039678
L B19,4004,Sint-Job,50.793586213518765,4.360429545901712
IC 01,527,Vertrijk,50.83594652922674,4.836594370794067
L L1-1,5275,Olne,50.56639308394579,5.703133531852481
IC 01,504,Gent-Sint-Pieters,51.03551971701421,3.710101315832923
IC 03,1504,Aalter,51.09225779139449,3.447855382940146
IC 06-2,3705,Ghlin,50.487523509938555,3.90639438934079
IC 29,3628,Brussels Airport - Zaventem,50.89642423705851,4.48395784718869
L B19,4004,Diesdelle,50.79612575604862,4.373898950394146
IC 31,3105,Obaix-Buzet,50.53576499907677,4.363632083286799
IC 02,1826,Beveren(Waas),51.208473876872844,4.260777895162216
L L1-1,5275,Trooz,50.57328744502597,5.688448772904129
IC 04-1,727,Komen,50.771963555146186,2.999344828949002
IC 03,1504,Bellem,51.08372389725801,3.487287359353551
IC 10,4325,Lier,51.13604368651541,4.561775772658214
IC 06-2,3705,Erbisoeul,50.5078636253228,3.888447711073647
L B10-1,2076,Ternat,50.874645887542954,4.165480312447825
IC 01,528,Dolhain-Gileppe,50.62692515023561,5.93868646551414
L 28,855,Harelbeke,50.85629094542211,3.314655510959286
IC 03,1504,Hansbeke,51.07270818510425,3.537446874067181
L B19,4004,Boondaal,50.801951889621996,4.393613977537654
L B19,4004,Arcaden,50.809668214471365,4.398413181937825
L L1-1,5275,Chaudfontaine,50.58695623775602,5.644168864995391
IC 02,1826,Nieuwkerken-Waas,51.18508212954049,4.184439116403614
L B10-1,2076,Sint-Martens-Bodegem,50.8671660562188,4.2049393203133
IC 02,1826,Sint-Niklaas-Oost,51.176623377622434,4.159519894481113
IC 06-2,3705,Jurbeke,50.530554529567226,3.91061322221787
IC 04-1,727,Wervik,50.781855330951956,3.046976838293909
IC 23-1,2303,Oudenaarde,50.85060234685959,3.600671251569412
L 11,6077,Bertrix,49.85232574338336,5.268150158432898
IC 10,4325,Boechout,51.16382800159388,4.49404699525959
IC 03,1504,Landegem,51.06421597718289,3.57704576219589
IC 06-2,3726,Brussels Airport - Zaventem,50.89642423705851,4.48395784718869
IC 29,3628,Schaarbeek,50.87869266989909,4.378431524039678
IC 01,528,Verviers-Paleis,50.59092927829129,5.865284693352242
IC 31,3105,Nijvel,50.6004932591792,4.335288481441468
IC 03,1504,Drongen,51.047503146402754,3.653586159319735
IC 06-2,3705,Masnuy-Saint-Pierre,50.536335796446835,3.962143546959787
IC 01,527,Leuven,50.88136571115078,4.716208512981546
L L1-1,5275,Chênée,50.60835327318151,5.614856781125281
L 28,876,Dendermonde,51.022951980794005,4.101327011759538
L B10-1,2076,Dilbeek,50.86638979130907,4.243574071280418
IC 02,1826,Sint-Niklaas,51.17159935285642,4.143282196338587
L B19,4004,Etterbeek,50.8213075599027,4.39049871944438
IC 10,4325,Mortsel,51.18289070974223,4.448811507867791
L 28,855,Waregem,50.89242835003542,3.42559831780833
IC 06-2,3705,Neufvilles,50.543523197055165,4.010763312378273
IC 29,3629,Landen,50.7478945465236,5.079627434738533
IC 06-2,3705,Neufvilles-Garage,50.5460562377274,4.015352406771576
IC 01,528,Verviers-Centraal,50.587801914284064,5.854635277252846
IC 11,3405,La Louvière-Zuid,50.464993656778184,4.19010515835262
IC 04-1,727,Menen,50.79946001891374,3.113887199330697
IC 01,527,Herent,50.90358929255643,4.672141055672479
L L1-1,5275,Angleur,50.61253000192086,5.600948994820556
L 28,876,Oudegem,51.014737627992446,4.062437122289404
IC 08,2605,Antwerpen-Centraal,51.216862033537794,4.421083629947415
L B10-1,2076,Groot-Bijgaarden,50.86839848514289,4.274515963982332
IC 23-1,2303,Sint-Denijs-Boekel,50.874198889945404,3.698421279546744
IC 08,2626,Leuven,50.88136571115078,4.716208512981546
IC 04-1,705,Antwerpen-Centraal,51.216862033537794,4.421083629947415
IC 10,4326,Neerpelt,51.22237547958096,5.437315565832811
L B19,4004,Mouterij,50.83101229975816,4.378599139352779
IC 31,3105,Lillois,50.64367353246769,4.363394702678375
IC 29,3628,Brussel-Noord,50.85959959838314,4.361252318634824
IC 10,4325,Antwerpen-Berchem,51.1988702961587,4.432979473543215
IC 06-2,3726,Schaarbeek,50.87869266989909,4.378431524039678
L B10-1,2076,Sint-Agatha-Berchem,50.873033681208796,4.290747342200437
IC 02,1826,Belsele,51.15105293420193,4.088971325808107
IC 01,527,Veltem,50.90055001720875,4.633517445095211
IC 01,527,Erps-Kwerps,50.89654505809275,4.584930600736926
L 28,876,Schoonaarde,51.003138571181125,4.011262908092702
IC 29,3628,Brussel-Congres,50.85178018311057,4.362219760072247
IC 23-2,2804,Brussel-Zuid,50.83580082886068,4.336052466325346
IC 20,2227,Dendermonde,51.022951980794005,4.101327011759538
IC 02,1826,Sinaai,51.143500701126385,4.068856389093756
IC 23-1,2303,Munkzwalm,50.875656666067506,3.731514205002289
IC 04-1,727,Wevelgem,50.81106670481992,3.182483664800671
IC 01,527,Kortenberg,50.89300415046401,4.543312926825426
IC 22,3326,Antwerpen-Centraal,51.216862033537794,4.421083629947415
IC 03,1504,Gent-Sint-Pieters,51.03551971701421,3.710101315832923
IC 29,3629,Neerwinden,50.76376087904074,5.036335028170957
IC 01,528,Pepinster,50.56851509165158,5.810268537289398
IC 10,4326,Overpelt,51.215549622947385,5.423126886234479
IC 06-2,3705,Zinnik,50.57312318221692,4.069352245033392
L B19,4004,Brussel-Luxemburg,50.8388378181944,4.373972450132626
IC 29,3628,Brussel-Centraal,50.84531101978561,4.35675831766839
IC 20,2227,Sint-Gillis(Dendermonde),51.02208185742186,4.117208570505743
IC 23-2,2804,Brussel-Kapellekerk,50.841176483587425,4.347842850133666
IC 20,2205,Gent-Sint-Pieters,51.03551971701421,3.710101315832923
IC 08,2605,Antwerpen-Berchem,51.1988702961587,4.432979473543215
IC 08,2626,Herent,50.90358929255643,4.672141055672479
IC 11,3405,La Louvière-Centrum,50.477715304331944,4.180068630195054
IC 06-1,1927,Brussels Airport - Zaventem,50.89642423705851,4.48395784718869
IC 02,1826,Lokeren-Oost,51.10977280180321,3.991494840923161
IC 01,527,Nossegem,50.88344233385105,4.506060556822931
L 13-2,5977,Aarlen,49.679971210545986,5.810609705951418
L 28,876,Wichelen,51.001758503990175,3.974883903141969
L L1-1,5275,Luik-Guillemins,50.62555824033023,5.565379651677738
IC 31,3105,Eigenbrakel,50.68475914261351,4.37582344502392
L 11,6077,Paliseul,49.89495830705849,5.119206133526989
L 28,855,Deinze,50.9781328604359,3.535002801077202
IC 04-1,705,Antwerpen-Berchem,51.1988702961587,4.432979473543215
L B10-1,2076,Jette,50.88120457651592,4.332923410788644
IC 08,2626,Veltem,50.90055001720875,4.633517445095211
IC 20,2227,Lebbeke,51.00475356147399,4.134881157174673
IC 08,2605,Mortsel-Deurnesteenweg,51.18231715581698,4.447187644772542
IC 20,2227,Heizijde,50.98889804389831,4.157254201988882
IC 01,505,Oostende,51.22794248315333,2.926625863197556
IC 01,527,Diegem,50.89062008445345,4.441952580833079
IC 01,527,Zaventem,50.885632548337114,4.469909600155111
IC 01,528,Nessonvaux,50.57198592493546,5.741746104791544
IC 29,3628,Brussel-Kapellekerk,50.841176483587425,4.347842850133666
L 28,855,Deinze-Wijksporen,50.9790461798649,3.540645659081197
IC 06-2,3726,Brussel-Noord,50.85959959838314,4.361252318634824
IC 06-1,1905,Doornik,50.615141816804844,3.388492484343276
IC 31,3105,Waterloo,50.715533973277154,4.383453531843166
IC 29,3629,Ezemaal,50.77212949781888,4.994219913271197
L B19,4004,Brussel-Schuman,50.842848617923735,4.380023585783107
IC 01,528,Fraipont,50.56512345525054,5.723431941853723
IC 02,1826,Lokeren,51.1070280724398,3.985383235145282
L B10-1,2076,Bockstael,50.87943983166831,4.348514000855896
IC 11,3405,La Louvière-Industriestation,50.48597883133482,4.193672918052559
IC 08,2626,Erps-Kwerps,50.89654505809275,4.584930600736926
IC 08,2605,Mortsel-Oude God,51.171808099384776,4.455388660748518
IC 23-2,2804,Brussel-Centraal,50.84531101978561,4.35675831766839
IC 01,527,Haren-Zuid,50.889616892134654,4.415076991166356
IC 04-1,727,Bissegem,50.82579327658622,3.224088411817595
L 28,876,Schellebelle,51.00312616442199,3.92143307788236
L B1-1,1776,Antwerpen-Centraal,51.216862033537794,4.421083629947415
IC 06-2,3726,Brussel-Congres,50.85178018311057,4.362219760072247
L 11,6077,Carlsbourg,49.903721616182835,5.09754707829283
IC 01,528,Olne,50.56639308394579,5.703133531852481
IC 22,3326,Antwerpen-Berchem,51.1988702961587,4.432979473543215
IC 08,2626,Kortenberg-Goederen,50.893766016593474,4.552069735832903
IC 20,2227,Opwijk,50.97461822357513,4.187540293365119
IC 08,2626,Kortenberg,50.89300415046401,4.543312926825426
IC 08,2605,Hove,51.15406191789155,4.465214254147384
IC 08,2605,Kontich-Lint,51.13368368793974,4.47689680687504
IC 06-1,1927,Zaventem,50.885632548337114,4.469909600155111
IC 23-2,2804,Brussel-Congres,50.85178018311057,4.362219760072247
IC 01,527,Schaarbeek,50.87869266989909,4.378431524039678
IC 01,528,Trooz,50.57328744502597,5.688448772904129
IC 10,4326,Lommel,51.211527124043826,5.310537299130095
IC 09,2904,Hasselt,50.93094539063631,5.326071324066093
IC 31,3105,De Hoek,50.73924115834706,4.370342368877128
IC 31,3105,Sint-Genesius-Rode,50.74811387437947,4.361939405198446
L B19,4004,Meiser,50.854757009079435,4.394274208667772
IC 22,3326,Mortsel-Deurnesteenweg,51.18231715581698,4.447187644772542
IC 17,2526,Namen,50.46920536707373,4.862754782172303
IC 04-1,705,Antwerpen-Zuid,51.19721428415948,4.391779006927757
L B19,4004,Schaarbeek-Josaphat,50.86036295580361,4.395006896335754
IC 06-2,3705,'s-Gravenbrakel,50.60484523104407,4.138162426655214
IC 23-1,2303,Zottegem,50.86909906459784,3.814701035934551
IC 08,2626,Nossegem,50.88344233385105,4.506060556822931
IC 20,2205,Merelbeke,51.020057593681734,3.764835020911601
IC 20,2227,Merchtem,50.95391293799017,4.223681249280842
L L1-1,5275,Luik-Carré,50.64016117047732,5.561580820714428
L 28,876,Wetteren,51.00149929084834,3.881915592818523
IC 29,3628,Brussel-Zuid,50.83580082886068,4.336052466325346
IC 06-2,3726,Brussel-Centraal,50.84531101978561,4.35675831766839
IC 31,3105,Holleken,50.767015163038835,4.354770803816823
L B19,4004,Evere,50.8682065685372,4.401355062293686
L 28,855,De Pinte,50.998952524822585,3.655383901672195
L B19,4027,Leuven,50.88136571115078,4.716208512981546
IC 01,528,Chaudfontaine,50.58695623775602,5.644168864995391
IC 08,2605,Duffel,51.091684329214274,4.492767295335319
IC 20,2227,Mollem,50.932896546874765,4.216581185073014
IC 08,2605,Sint-Katelijne-Waver,51.07092770112268,4.495807348133646
L 11,6077,Graide,49.93372052397986,5.043616894147011
IC 22,3326,Mortsel-Oude God,51.171808099384776,4.455388660748518
IC 06-2,3726,Brussel-Kapellekerk,50.841176483587425,4.347842850133666
IC 01,528,Chênée,50.60835327318151,5.614856781125281
IC 10,4326,Balen-Werkplaatsen,51.204947001662255,5.245949995002284
L B19,4005,Nijvel,50.6004932591792,4.335288481441468
L B19,4004,Bordet,50.8777742574513,4.410014404476271
IC 31,3105,Linkebeek,50.77339212483393,4.339918296891916
L B1-1,1776,Antwerpen-Berchem,51.1988702961587,4.432979473543215
IC 06-1,1905,Havinnes,50.61882981688033,3.49566068071467
L L1-1,5275,Luik-Sint-Lambertus,50.64694935205776,5.57261263700804
L B10-1,2076,Brussel-Noord,50.85959959838314,4.361252318634824
IC 11,3405,Familleureux,50.519411502375476,4.211654529557394
IC 02,1826,Beervelde,51.087172443782855,3.879980395685934
IC 23-1,2303,Hillegem,50.89129484430886,3.857476893082532
IC 06-1,1927,Diegem,50.89062008445345,4.441952580833079
IC 08,2605,Mechelen-Nekkerspoel,51.030011706650285,4.490206757525486
L B3,2255,Zottegem,50.86909906459784,3.814701035934551
IC 20,2227,Asse,50.90670257176685,4.208230395126666
IC 23-1,2303,Herzele,50.89692470109805,3.879519908406242
IC 22,3326,Hove,51.15406191789155,4.465214254147384
IC 06-2,3705,Hennuyères,50.65091444999998,4.176132141679284
IC 01,528,Angleur,50.61253000192086,5.600948994820556
IC 06-2,3705,Hennuyères-Garage,50.6479509231809,4.173327027471045
IC 31,3105,Ukkel-Kalevoet,50.79221449555428,4.331745965347926
IC 04-1,705,Zwijndrecht,51.213640244311954,4.324671903684774
IC 06-1,1904,Brussel-Zuid,50.83580082886068,4.336052466325346
IC 17,2526,Rhisnes-Sas,50.50059749700802,4.799814589897698
IC 17,2526,Rhisnes,50.4993004915618,4.801803854068583
IC 31,3105,Ukkel-Stalle,50.80248548912509,4.323778171903269
L B19,4004,Haren,50.888870897054744,4.420030838936388
L B19,4005,Baulers,50.61231055874444,4.350260827251606
IC 22,3326,Kontich-Lint,51.13368368793974,4.47689680687504
IC 29,3629,Tienen,50.8079314339937,4.925636678946889
L B19,4027,Herent,50.90358929255643,4.672141055672479
IC 23-1,2303,Terhagen,50.90182412616037,3.897482385381147
IC 11,3405,Marche-lez-Ecaussinnes,50.54620487800974,4.177102420598815
IC 08,2626,Brussels Airport - Zaventem,50.89642423705851,4.48395784718869
L B10-1,2076,Brussel-Congres,50.85178018311057,4.362219760072247
IC 23-2,2804,Brussel-Noord,50.85959959838314,4.361252318634824
IC 20,2205,Melle,51.002749921068165,3.796939037051605
L 11,6055,Namen,50.46920536707373,4.862754782172303
L 28,876,Kwatrecht,50.99155010054474,3.833335262496046
L 11,6055,Namur-Herbatte,50.469169910735076,4.869133583242475
IC 01,527,Brussel-Noord,50.85959959838314,4.361252318634824
L B1-1,1776,Mortsel-Deurnesteenweg,51.18231715581698,4.447187644772542
IC 04-1,705,Melsele,51.21082656268172,4.288506223071698
IC 29,3628,Anderlecht,50.817918890620895,4.29153935389493
IC 17,2526,Saint-Denis-Bovesse,50.521297001857974,4.767791995102788
L B19,4027,Veltem,50.90055001720875,4.633517445095211
IC 31,3105,Vorst-Oost,50.81020033751361,4.320981153478699
IC 06-2,3705,Tubeke,50.69169220545364,4.20581147629095
IC 06-1,1904,Brussel-Kapellekerk,50.841176483587425,4.347842850133666
IC 06-1,1927,Haren-Zuid,50.889616892134654,4.415076991166356
IC 23-1,2303,Burst,50.90690477967195,3.920956497963406
IC 20,2227,Zellik,50.889543320907,4.275293625047353
IC 20,2205,Kwatrecht,50.99155010054474,3.833335262496046
L B10-1,2076,Brussel-Centraal,50.84531101978561,4.35675831766839
L 28,876,Melle,51.002749921068165,3.796939037051605
L 13-2,5977,Messancy,49.594027856871506,5.81831958125903
IC 06-2,3705,Lembeek,50.71511214097718,4.221567770089727
IC 17,2526,Beuzet,50.532974982431014,4.750194075854363
IC 04-1,705,Beveren(Waas),51.208473876872844,4.260777895162216
IC 22,3326,Duffel,51.091684329214274,4.492767295335319
IC 09,2904,Diepenbeek,50.9117654559103,5.41632753993968
IC 22,3326,Sint-Katelijne-Waver,51.07092770112268,4.495807348133646
L B19,4027,Erps-Kwerps,50.89654505809275,4.584930600736926
L B1-1,1776,Mortsel-Oude God,51.171808099384776,4.455388660748518
IC 31,3126,Brussel-Noord,50.85959959838314,4.361252318634824
IC 17,2526,Lonzée,50.55197706629923,4.720151428541858
L B10-1,2076,Brussel-Kapellekerk,50.841176483587425,4.347842850133666
IC 23-2,2804,Schaarbeek,50.87869266989909,4.378431524039678
L B3,2255,Hillegem,50.89129484430886,3.857476893082532
IC 11,3405,Ecaussinnes,50.56236360511417,4.156673065283353
IC 06-1,1927,Schaarbeek,50.87869266989909,4.378431524039678
IC 01,527,Brussel-Congres,50.85178018311057,4.362219760072247
IC 01,504,Brussel-Zuid,50.83580082886068,4.336052466325346
L 28,876,Merelbeke,51.020057593681734,3.764835020911601
IC 06-2,3726,Brussel-Zuid,50.83580082886068,4.336052466325346
IC 06-2,3705,Halle,50.733060256649814,4.239823954453461
IC 06-1,1904,Brussel-Centraal,50.84531101978561,4.35675831766839
L B19,4027,Kortenberg,50.89300415046401,4.543312926825426
IC 08,2605,Mechelen,51.01761866620954,4.483579828080118
IC 23-1,2303,Ede,50.91099162785289,3.987780754836433
L 11,6055,Jambes,50.45397911996434,4.875468217584368
IC 04-1,727,Kortrijk,50.82441338246862,3.267774528680328
IC 01,528,Luik-Guillemins,50.62555824033023,5.565379651677738
IC 06-1,1904,Brussel-Congres,50.85178018311057,4.362219760072247
IC 06-1,1905,Leuze,50.60055276661659,3.616784177194411
L B10-1,2055,Brussel-Zuid,50.83580082886068,4.336052466325346
L 11,6077,Gedinne,49.98409071470052,4.97816774883466
IC 31,3126,Brussel-Congres,50.85178018311057,4.362219760072247
IC 04-1,705,Nieuwkerken-Waas,51.18508212954049,4.184439116403614
L B19,4027,Nossegem,50.88344233385105,4.506060556822931
L B1-1,1776,Hove,51.15406191789155,4.465214254147384
L 11,6077,Gedinne-Marchandises,49.98522277357419,4.978550757453018
IC 22,3326,Mechelen-Nekkerspoel,51.030011706650285,4.490206757525486
IC 04-1,705,Sint-Niklaas-Oost,51.176623377622434,4.159519894481113
L B19,4005,Lillois,50.64367353246769,4.363394702678375
IC 29,3629,Vertrijk,50.83594652922674,4.836594370794067
IC 10,4326,Mol,51.19069542549062,5.114991873356337
L B3,2255,Herzele,50.89692470109805,3.879519908406242
IC 20,2205,Wetteren,51.00149929084834,3.881915592818523
IC 23-1,2303,Haaltert,50.907066641303196,4.021716617534101
IC 01,504,Brussel-Kapellekerk,50.841176483587425,4.347842850133666
IC 01,527,Brussel-Centraal,50.84531101978561,4.35675831766839
L B8-2,5676,Louvain-la-Neuve,50.669942365664625,4.616284940483432
IC 01,505,Brugge,51.19727306937378,3.216852878213191
L B10-1,2055,Brussel-Kapellekerk,50.841176483587425,4.347842850133666
IC 31,3105,Brussel-Zuid,50.83580082886068,4.336052466325346
IC 09,2904,Bilzen-Wijkspoor,50.87164775246125,5.509354730128338
IC 20,2227,Jette,50.88120457651592,4.332923410788644
IC 23-1,2303,Welle,50.90304992098791,4.05086651791031
IC 02,1826,Gent-Dampoort,51.056728987048956,3.740515250330524
IC 20,2227,Bockstael,50.87943983166831,4.348514000855896
IC 06-1,1927,Brussel-Noord,50.85959959838314,4.361252318634824
L B3,2255,Terhagen,50.90182412616037,3.897482385381147
IC 20,2205,Schellebelle,51.00312616442199,3.92143307788236
IC 01,527,Brussel-Kapellekerk,50.841176483587425,4.347842850133666
L B2-2,3755,Brussel-Zuid,50.83580082886068,4.336052466325346
IC 17,2526,Gembloux,50.57124514484745,4.690630393213297
IC 31,3126,Brussel-Centraal,50.84531101978561,4.35675831766839
IC 09,2904,Bilzen,50.868680426197486,5.509372414884934
L B1-1,1776,Kontich-Lint,51.13368368793974,4.47689680687504
IC 31,3126,Brussel-Kapellekerk,50.841176483587425,4.347842850133666
L B10-1,2055,Brussel-Centraal,50.84531101978561,4.35675831766839
IC 02,1826,Gentbrugge,51.03878033373764,3.756083021687756
IC 01,504,Brussel-Centraal,50.84531101978561,4.35675831766839
L 13-2,5977,Athus,49.563854762384,5.829224589508755
IC 01,505,Oostkamp,51.15421490987769,3.257626153621203
IC 04-1,727,Harelbeke,50.85629094542211,3.314655510959286
IC 04-1,705,Sint-Niklaas,51.17159935285642,4.143282196338587
L B2-2,3755,Brussel-Kapellekerk,50.841176483587425,4.347842850133666
IC 29,3628,Liedekerke,50.882547620740944,4.095286581223728
L B19,4004,Brussels Airport - Zaventem,50.89642423705851,4.48395784718869
IC 31,3105,Brussel-Kapellekerk,50.841176483587425,4.347842850133666
IC 17,2526,Ernage,50.592425164448926,4.667147778258966
L B1-2,1956,Nijvel,50.6004932591792,4.335288481441468
IC 06-1,1927,Brussel-Congres,50.85178018311057,4.362219760072247
IC 02,1826,Gentbrugge-Perron C.W.,51.029577695344535,3.752448334641758
IC 20,2205,Serskamp,50.98453800875389,3.959538984169734
L B3,2255,Burst,50.90690477967195,3.920956497963406
IC 01,504,Brussel-Congres,50.85178018311057,4.362219760072247
IC 03,1504,Anderlecht,50.817918890620895,4.29153935389493
IC 17,2526,Chastre,50.60757597085545,4.65013041163728
IC 01,528,Ans,50.66119033371017,5.509696653841267
L B10-1,2055,Brussel-Congres,50.85178018311057,4.362219760072247
IC 22,3326,Mechelen,51.01761866620954,4.483579828080118
IC 17,2506,Brussel-Zuid,50.83580082886068,4.336052466325346
IC 06-1,1904,Brussel-Noord,50.85959959838314,4.361252318634824
L L1-1,5256,Herstal,50.66038889612703,5.622362799581048
IC 17,2526,Blanmont,50.6195230216506,4.636686921998361
L B2-2,3755,Brussel-Centraal,50.84531101978561,4.35675831766839
L B19,4027,Brussels Airport - Zaventem,50.89642423705851,4.48395784718869
L 08,6256,Ottignies,50.671773574303224,4.570373990520092
IC 31,3105,Brussel-Centraal,50.84531101978561,4.35675831766839
IC 11,3405,'s-Gravenbrakel,50.60484523104407,4.138162426655214
IC 23-1,2303,Denderleeuw,50.891621170603955,4.071431566061722
IC 06-1,1927,Brussel-Centraal,50.84531101978561,4.35675831766839
L G2,1876,Geraardsbergen,50.770949248522925,3.872417489184951
L B19,4004,Nossegem,50.88344233385105,4.506060556822931
L B1-1,1776,Duffel,51.091684329214274,4.492767295335319
IC 06-2,3726,Halle,50.733060256649814,4.239823954453461
L B19,4005,Eigenbrakel,50.68475914261351,4.37582344502392
IC 17,2526,Mont-Saint-Guibert,50.63829834924627,4.61270934638381
IC 17,2506,Brussel-Kapellekerk,50.841176483587425,4.347842850133666
IC 01,505,Beernem,51.127984351343564,3.329867037752411
IC 01,527,Brussel-Zuid,50.83580082886068,4.336052466325346
L 28,876,Gent-Sint-Pieters,51.03551971701421,3.710101315832923
L 28,877,Mechelen,51.01761866620954,4.483579828080118
L 13-2,5977,Aubange,49.5633161795773,5.800053519656957
L 11,6055,Lustin,50.36974157323638,4.87748847850772
IC 20,2227,Brussel-Noord,50.85959959838314,4.361252318634824
IC 02,1827,Antwerpen-Centraal,51.216862033537794,4.421083629947415
IC 20,2205,Lede,50.970970941375874,3.985076835022102
IC 08,2626,Mechelen,51.01761866620954,4.483579828080118
L B10-1,2077,Aalst,50.94312325212488,4.038683507111515
IC 31,3106,Charleroi-Centraal,50.40419960613283,4.438439317373349
IC 10,4326,Geel,51.169052549858385,4.989631494192635
L B2-2,3755,Brussel-Congres,50.85178018311057,4.362219760072247
IC 04-1,705,Belsele,51.15105293420193,4.088971325808107
IC 04-1,705,Sinaai,51.143500701126385,4.068856389093756
IC 31,3105,Brussel-Congres,50.85178018311057,4.362219760072247
IC 17,2506,Brussel-Centraal,50.84531101978561,4.35675831766839
L B1-1,1756,Brussel-Zuid,50.83580082886068,4.336052466325346
L B19,4004,Kortenberg,50.89300415046401,4.543312926825426
IC 06-2,3726,Lembeek,50.71511214097718,4.221567770089727
L B10-1,2055,Brussel-Noord,50.85959959838314,4.361252318634824
IC 31,3126,Brussel-Zuid,50.83580082886068,4.336052466325346
IC 01,504,Brussel-Noord,50.85959959838314,4.361252318634824
IC 04-1,728,Poperinge,50.85444837837162,2.736306432736006
IC 01,505,Maria-Aalter,51.10757473497731,3.386700586663826
IC 06-1,1927,Brussel-Kapellekerk,50.841176483587425,4.347842850133666
IC 23-1,2303,Liedekerke,50.882547620740944,4.095286581223728
L B3,2255,Ede,50.91099162785289,3.987780754836433
IC 08,2626,Mechelen-Nekkerspoel,51.030011706650285,4.490206757525486
IC 11,3405,Hennuyères,50.65091444999998,4.176132141679284
IC 20,2227,Brussel-Congres,50.85178018311057,4.362219760072247
IC 11,3405,Hennuyères-Garage,50.6479509231809,4.173327027471045
L B1-2,1956,Lillois,50.64367353246769,4.363394702678375
IC 22,3326,Weerde,50.977243209834526,4.471087335301695
IC 06-1,1904,Schaarbeek,50.87869266989909,4.378431524039678
IC 25,3829,Liers-Faisceau,50.69978530450907,5.558491077982493
L B1-1,1776,Sint-Katelijne-Waver,51.07092770112268,4.495807348133646
L B19,4004,Erps-Kwerps,50.89654505809275,4.584930600736926
IC 29,3629,Leuven,50.88136571115078,4.716208512981546
L L1-1,5276,Verviers-Centraal,50.587801914284064,5.854635277252846
IC 04-1,727,Waregem,50.89242835003542,3.42559831780833
IC 10,4306,Antwerpen-Centraal,51.216862033537794,4.421083629947415
L B3,2277,Schaarbeek,50.87869266989909,4.378431524039678
L B1-1,1756,Brussel-Kapellekerk,50.841176483587425,4.347842850133666
IC 25,3827,Charleroi-Centraal,50.40419960613283,4.438439317373349
IC 06-2,3726,Tubeke,50.69169220545364,4.20581147629095
IC 06-1,1905,Aat,50.627030183302196,3.776393685659921
IC 22,3326,Eppegem,50.95840721352074,4.457499467095007
IC 17,2506,Brussel-Congres,50.85178018311057,4.362219760072247
IC 31,3127,Antwerpen-Centraal,51.216862033537794,4.421083629947415
IC 06-2,3705,Brussel-Zuid,50.83580082886068,4.336052466325346
IC 04-1,705,Lokeren-Oost,51.10977280180321,3.991494840923161
L B19,4005,Waterloo,50.715533973277154,4.383453531843166
IC 29,3628,Denderleeuw,50.891621170603955,4.071431566061722
IC 03,1505,Brugge,51.19727306937378,3.216852878213191
L B1-2,1976,Brussel-Noord,50.85959959838314,4.361252318634824
L L1-1,5256,Luik-Sint-Lambertus,50.64694935205776,5.57261263700804
L B19,4004,Veltem,50.90055001720875,4.633517445095211
L B19,4027,Haren,50.888870897054744,4.420030838936388
IC 02,1806,Oostende,51.22794248315333,2.926625863197556
IC 31,3105,Brussel-Noord,50.85959959838314,4.361252318634824
IC 09,2904,Tongeren,50.78417812241077,5.473981817007522
L B2-2,3755,Brussel-Noord,50.85959959838314,4.361252318634824
IC 31,3126,Vorst-Oost,50.81020033751361,4.320981153478699
IC 01,504,Schaarbeek,50.87869266989909,4.378431524039678
L 11,6055,Godinne,50.3488506246698,4.869974117956068
IC 01,527,Anderlecht,50.817918890620895,4.29153935389493
IC 01,505,Aalter,51.09225779139449,3.447855382940146
L 13-2,5977,Halanzy,49.55597176168689,5.742228911420838
L B10-1,2077,Erembodegem,50.91929248249657,4.055478044299816
IC 08,2605,Brussels Airport - Zaventem,50.89642423705851,4.48395784718869
IC 20,2227,Brussel-Centraal,50.84531101978561,4.35675831766839
L B3,2255,Haaltert,50.907066641303196,4.021716617534101
IC 02,1826,Gent-Sint-Pieters,51.03551971701421,3.710101315832923
IC 20,2227,Brussel-Kapellekerk,50.841176483587425,4.347842850133666
L B2-2,3777,Leuven,50.88136571115078,4.716208512981546
IC 23-1,2304,Kortrijk,50.82441338246862,3.267774528680328
IC 08,2626,Sint-Katelijne-Waver,51.07092770112268,4.495807348133646
L B10-1,2055,Bockstael,50.87943983166831,4.348514000855896
L 08,6256,Mont-Saint-Guibert,50.63829834924627,4.61270934638381
L B19,4004,Herent,50.90358929255643,4.672141055672479
IC 10,4326,Olen,51.17402976913898,4.902499251852356
IC 06-2,3705,Brussel-Kapellekerk,50.841176483587425,4.347842850133666
L B19,4005,De Hoek,50.73924115834706,4.370342368877128
IC 31,3126,Ukkel-Stalle,50.80248548912509,4.323778171903269
L 11,6077,Beauraing,50.113835526135354,4.957023362536677
IC 06-2,3726,Hennuyères,50.65091444999998,4.176132141679284
IC 06-1,1904,Haren-Zuid,50.889616892134654,4.415076991166356
L 23,2877,Leuven,50.88136571115078,4.716208512981546
L B1-1,1756,Brussel-Centraal,50.84531101978561,4.35675831766839
L B1-1,1776,Mechelen-Nekkerspoel,51.030011706650285,4.490206757525486
IC 31,3106,Marchienne-au-Pont,50.41221701003429,4.394312434115766
IC 06-2,3726,Hennuyères-Garage,50.6479509231809,4.173327027471045
IC 03,1504,Brussel-Zuid,50.83580082886068,4.336052466325346
L B1-2,1976,Brussel-Congres,50.85178018311057,4.362219760072247
IC 31,3126,Ukkel-Kalevoet,50.79221449555428,4.331745965347926
IC 04-1,705,Lokeren,51.1070280724398,3.985383235145282
L G2,1876,Lierde,50.81658982280488,3.825714387767464
IC 29,3629,Herent,50.90358929255643,4.672141055672479
IC 08,2626,Duffel,51.091684329214274,4.492767295335319
IC 11,3406,Binche,50.408563854714735,4.172759557130057
IC 20,2205,Aalst,50.94312325212488,4.038683507111515
IC 02,1827,Antwerpen-Berchem,51.1988702961587,4.432979473543215
IC 11,3427,Schaarbeek,50.87869266989909,4.378431524039678
IC 11,3405,Tubeke,50.69169220545364,4.20581147629095
IC 01,505,Bellem,51.08372389725801,3.487287359353551
IC 01,504,Haren-Zuid,50.889616892134654,4.415076991166356
L 28,876,De Pinte,50.998952524822585,3.655383901672195
IC 01,504,Diegem,50.89062008445345,4.441952580833079
IC 29,3629,Veltem,50.90055001720875,4.633517445095211
IC 22,3326,Vilvoorde,50.92414359820823,4.432813750239998
IC 17,2526,Ottignies,50.671773574303224,4.570373990520092
IC 09,2928,Luik-Guillemins,50.62555824033023,5.565379651677738
L 01,4977,Luik-Guillemins,50.62555824033023,5.565379651677738
L B1-1,1756,Brussel-Congres,50.85178018311057,4.362219760072247
IC 25,3829,Liers,50.69817964040005,5.566911104405785
L B19,4027,Bordet,50.8777742574513,4.410014404476271
IC 31,3126,Linkebeek,50.77339212483393,4.339918296891916
IC 29,3604,Gent-Sint-Pieters,51.03551971701421,3.710101315832923
IC 23-1,2329,Brussels Airport - Zaventem,50.89642423705851,4.48395784718869
IC 31,3105,Schaarbeek,50.87869266989909,4.378431524039678
IC 17,2527,Dinant,50.260730671818045,4.908199789924007
L B3,2255,Welle,50.90304992098791,4.05086651791031
L B1-2,1956,Eigenbrakel,50.68475914261351,4.37582344502392
IC 25,3806,Moeskroen,50.73833321248668,3.225382514546805
IC 06-1,1927,Brussel-Zuid,50.83580082886068,4.336052466325346
IC 08,2605,Nossegem,50.88344233385105,4.506060556822931
IC 08,2626,Kontich-Lint,51.13368368793974,4.47689680687504
IC 20,2205,Erembodegem,50.91929248249657,4.055478044299816
IC 25,3805,Bergen,50.454436770348934,3.942380575452241
IC 01,505,Hansbeke,51.07270818510425,3.537446874067181
L L1-1,5276,Pepinster,50.56851509165158,5.810268537289398
L 28,877,Kapelle-op-den-Bos,51.010827123385425,4.358811372849264
IC 01,504,Zaventem,50.885632548337114,4.469909600155111
IC 06-2,3705,Brussel-Centraal,50.84531101978561,4.35675831766839
IC 22,3326,Buda,50.90808941401188,4.417587678075591
IC 03,1504,Brussel-Kapellekerk,50.841176483587425,4.347842850133666
L 08,6256,Blanmont,50.6195230216506,4.636686921998361
L B19,4027,Evere,50.8682065685372,4.401355062293686
L L1-1,5256,Luik-Carré,50.64016117047732,5.561580820714428
IC 03,1505,Oostkamp,51.15421490987769,3.257626153621203
IC 29,3628,Erembodegem,50.91929248249657,4.055478044299816
IC 31,3126,Holleken,50.767015163038835,4.354770803816823
L B19,4005,Sint-Genesius-Rode,50.74811387437947,4.361939405198446
IC 17,2506,Brussel-Noord,50.85959959838314,4.361252318634824
L B1-2,1976,Brussel-Centraal,50.84531101978561,4.35675831766839
L B10-1,2055,Jette,50.88120457651592,4.332923410788644
IC 31,3127,Antwerpen-Berchem,51.1988702961587,4.432979473543215
L B1-2,1976,Brussel-Kapellekerk,50.841176483587425,4.347842850133666
IC 09,2904,Glaaien,50.750527352637484,5.535236934399886
L B19,4027,Schaarbeek-Josaphat,50.86036295580361,4.395006896335754
IC 29,3629,Erps-Kwerps,50.89654505809275,4.584930600736926
IC 06-1,1904,Diegem,50.89062008445345,4.441952580833079
IC 31,3126,Sint-Genesius-Rode,50.74811387437947,4.361939405198446
IC 25,3827,Marchienne-au-Pont,50.41221701003429,4.394312434115766
IC 31,3106,Roux,50.44308266140329,4.394000597539677
L B2-2,3755,Schaarbeek,50.87869266989909,4.378431524039678
IC 23-1,2303,Anderlecht,50.817918890620895,4.29153935389493
IC 08,2626,Hove,51.15406191789155,4.465214254147384
IC 11,3405,Lembeek,50.71511214097718,4.221567770089727
IC 08,2605,Kortenberg,50.89300415046401,4.543312926825426
IC 02,1826,Drongen,51.047503146402754,3.653586159319735
L B3,2277,Brussel-Noord,50.85959959838314,4.361252318634824
IC 10,4306,Antwerpen-Berchem,51.1988702961587,4.432979473543215
IC 04-1,728,Ieper,50.847477690810365,2.876886293135154
L 11,6055,Yvoir,50.32085000245575,4.878760881433763
IC 01,504,Nossegem,50.88344233385105,4.506060556822931
L 28,876,Deinze-Wijksporen,50.9790461798649,3.540645659081197
IC 04-1,727,Deinze,50.9781328604359,3.535002801077202
IC 01,504,Kortenberg,50.89300415046401,4.543312926825426
IC 01,505,Landegem,51.06421597718289,3.57704576219589
IC 31,3105,Buda,50.90808941401188,4.417587678075591
L B19,4027,Meiser,50.854757009079435,4.394274208667772
IC 31,3126,De Hoek,50.73924115834706,4.370342368877128
IC 06-2,3705,Brussel-Congres,50.85178018311057,4.362219760072247
IC 17,2505,Namen,50.46920536707373,4.862754782172303
IC 31,3106,Courcelles-Motte,50.46202986102244,4.400412086453594
IC 29,3629,Kortenberg-Goederen,50.893766016593474,4.552069735832903
L B19,4005,Holleken,50.767015163038835,4.354770803816823
IC 29,3629,Kortenberg,50.89300415046401,4.543312926825426
IC 31,3127,Mortsel-Deurnesteenweg,51.18231715581698,4.447187644772542
L 01,4977,Sclessin,50.61036517564539,5.55669507871075
IC 30,4206,Turnhout,51.32327000158529,4.938189995120822
IC 11,3406,Leval,50.43066476604268,4.211414215952779
L B1-2,1956,Waterloo,50.715533973277154,4.383453531843166
IC 08,2605,Erps-Kwerps,50.89654505809275,4.584930600736926
IC 08,2626,Mortsel-Oude God,51.171808099384776,4.455388660748518
IC 02,1827,Antwerpen-Zuid,51.19721428415948,4.391779006927757
L B3,2277,Brussel-Congres,50.85178018311057,4.362219760072247
IC 08,2626,Mortsel-Deurnesteenweg,51.18231715581698,4.447187644772542
IC 06-1,1927,Vorst-Zuid,50.810073408172734,4.310347515402428
L B2-2,3777,Herent,50.90358929255643,4.672141055672479
IC 04-1,727,Deinze-Wijksporen,50.9790461798649,3.540645659081197
L C1,4555,Charleroi-Centraal,50.40419960613283,4.438439317373349
L B10-1,2055,Sint-Agatha-Berchem,50.873033681208796,4.290747342200437
IC 25,3829,Milmort,50.69342290621258,5.599557700763655
L 08,6256,Chastre,50.60757597085545,4.65013041163728
IC 23-1,2329,Zaventem,50.885632548337114,4.469909600155111
L B1-1,1756,Brussel-Noord,50.85959959838314,4.361252318634824
IC 29,3629,Nossegem,50.88344233385105,4.506060556822931
IC 17,2505,Namur-Herbatte,50.469169910735076,4.869133583242475
IC 03,1504,Brussel-Centraal,50.84531101978561,4.35675831766839
IC 03,1505,Beernem,51.127984351343564,3.329867037752411
IC 06-2,3726,'s-Gravenbrakel,50.60484523104407,4.138162426655214
L 01,4977,Tilleur,50.619325790518765,5.52959613022457
IC 04-1,705,Beervelde,51.087172443782855,3.879980395685934
L B8-4,6577,Ottignies,50.671773574303224,4.570373990520092
IC 31,3126,Waterloo,50.715533973277154,4.383453531843166
IC 29,3604,Merelbeke,51.020057593681734,3.764835020911601
IC 09,2927,Hasselt,50.93094539063631,5.326071324066093
IC 22,3326,Schaarbeek,50.87869266989909,4.378431524039678
IC 03,1504,Brussel-Congres,50.85178018311057,4.362219760072247
IC 23-1,2329,Diegem,50.89062008445345,4.441952580833079
IC 09,2928,Luik-Carré,50.64016117047732,5.561580820714428
IC 31,3127,Mortsel-Oude God,51.171808099384776,4.455388660748518
IC 25,3805,Nimy,50.47176943541776,3.95653982987247
IC 20,2227,Brussel-Zuid,50.83580082886068,4.336052466325346
IC 25,3806,Herseaux,50.71428726455946,3.24481180953509
IC 08,2605,Veltem,50.90055001720875,4.633517445095211
IC 02,1826,Landegem,51.06421597718289,3.57704576219589
IC 11,3427,Brussel-Noord,50.85959959838314,4.361252318634824
IC 06-1,1927,Ruisbroek,50.79177235834205,4.295521156543186
IC 10,4306,Mortsel,51.18289070974223,4.448811507867791
L B3,2255,Denderleeuw,50.891621170603955,4.071431566061722
IC 01,504,Erps-Kwerps,50.89654505809275,4.584930600736926
IC 01,505,Drongen,51.047503146402754,3.653586159319735
L L1-1,5276,Nessonvaux,50.57198592493546,5.741746104791544
L 28,877,Londerzeel,51.00941362761383,4.296896133799565
L 28,876,Deinze,50.9781328604359,3.535002801077202
IC 01,504,Veltem,50.90055001720875,4.633517445095211
IC 10,4326,Herentals,51.18107296652878,4.828554945607912
IC 03,1505,Maria-Aalter,51.10757473497731,3.386700586663826
IC 29,3628,Aalst,50.94312325212488,4.038683507111515
L B19,4005,Linkebeek,50.77339212483393,4.339918296891916
IC 06-2,3706,Bergen,50.454436770348934,3.942380575452241
L B10-1,2055,Groot-Bijgaarden,50.86839848514289,4.274515963982332
IC 17,2526,Profondsart,50.69384598089478,4.549496108321164
L B2-2,3755,Haren-Zuid,50.889616892134654,4.415076991166356
IC 06-1,1905,Opzullik,50.663205398063035,3.937245875917736
L 01,4977,Pont-de-Seraing,50.619916699168094,5.511349156465087
L 23,2877,Wezemaal,50.95636089869388,4.748012297469645
L B1-2,1956,De Hoek,50.73924115834706,4.370342368877128
IC 23-1,2304,Vichte,50.833503060446695,3.392847172084267
IC 08,2605,Herent,50.90358929255643,4.672141055672479
L B3,2277,Brussel-Centraal,50.84531101978561,4.35675831766839
L B2-2,3777,Veltem,50.90055001720875,4.633517445095211
IC 25,3805,Obourg-Marchandises,50.470021634500924,4.016410270720788
IC 25,3805,Obourg,50.46980723102854,4.006727859438542
IC 02,1826,Hansbeke,51.07270818510425,3.537446874067181
IC 06-1,1927,Lot,50.765128381018265,4.272571084560079
L B3,2277,Brussel-Kapellekerk,50.841176483587425,4.347842850133666
L B3,2255,Liedekerke,50.882547620740944,4.095286581223728
IC 11,3427,Brussel-Congres,50.85178018311057,4.362219760072247
IC 08,2626,Antwerpen-Berchem,51.1988702961587,4.432979473543215
IC 11,3405,Halle,50.733060256649814,4.239823954453461
IC 04-1,727,De Pinte,50.998952524822585,3.655383901672195
IC 01,504,Herent,50.90358929255643,4.672141055672479
L 11,6077,Houyet,50.19034554043201,5.005903558228376
IC 06-1,1904,Zaventem,50.885632548337114,4.469909600155111
IC 25,3827,Forchies,50.433128757386235,4.323472828215522
IC 17,2526,Rixensart,50.71351481096948,4.530823605161436
IC 31,3127,Hove,51.15406191789155,4.465214254147384
IC 23-1,2329,Haren-Zuid,50.889616892134654,4.415076991166356
IC 31,3105,Vilvoorde,50.92414359820823,4.432813750239998
IC 06-2,3705,Brussel-Noord,50.85959959838314,4.361252318634824
L B19,4027,Brussel-Schuman,50.842848617923735,4.380023585783107
IC 17,2505,Jambes,50.45397911996434,4.875468217584368
IC 31,3127,Kontich-Lint,51.13368368793974,4.47689680687504
L L1-1,5256,Luik-Guillemins,50.62555824033023,5.565379651677738
IC 31,3126,Eigenbrakel,50.68475914261351,4.37582344502392
L 01,4977,Jemeppe-sur-Meuse,50.61841627390551,5.497799707765852
L B1-1,1756,Schaarbeek,50.87869266989909,4.378431524039678
IC 17,2526,Genval,50.726467561824926,4.513841930930245
IC 17,2527,Yvoir,50.32085000245575,4.878760881433763
L G2,1876,Zottegem,50.86909906459784,3.814701035934551
L B1-1,1776,Mechelen,51.01761866620954,4.483579828080118
IC 29,3604,Melle,51.002749921068165,3.796939037051605
L 08,6256,Ernage,50.592425164448926,4.667147778258966
IC 09,2928,Luik-Sint-Lambertus,50.64694935205776,5.57261263700804
L B1-2,1976,Brussel-Zuid,50.83580082886068,4.336052466325346
IC 10,4306,Boechout,51.16382800159388,4.49404699525959
IC 06-1,1927,Buizingen,50.75154826326621,4.258657550563639
L B10-1,2077,Denderleeuw,50.891621170603955,4.071431566061722
L C1,4555,Couillet,50.39264488205441,4.46933253671293
L 13-2,5977,Virton,49.56075846267675,5.518329536948791
L L1-1,5276,Fraipont,50.56512345525054,5.723431941853723
L B8-4,6577,Profondsart,50.69384598089478,4.549496108321164
IC 31,3105,Eppegem,50.95840721352074,4.457499467095007
IC 17,2506,Brussel-Schuman,50.842848617923735,4.380023585783107
L B20-1,3056,Ottignies,50.671773574303224,4.570373990520092
IC 17,2526,Terhulpen,50.73811044447185,4.497448352714626
IC 25,3827,Piéton,50.43511682114374,4.286129350500978
L 16,5756,Namen,50.46920536707373,4.862754782172303
L B10-1,2055,Dilbeek,50.86638979130907,4.243574071280418
IC 23-1,2329,Schaarbeek,50.87869266989909,4.378431524039678
L B2-2,3756,'s-Gravenbrakel,50.60484523104407,4.138162426655214
IC 29,3604,Kwatrecht,50.99155010054474,3.833335262496046
IC 31,3106,Luttre,50.50601206060288,4.384250449864734
IC 25,3805,Havré,50.47086130374264,4.058356446670643
IC 20,2227,Anderlecht,50.817918890620895,4.29153935389493
IC 11,3427,Brussel-Centraal,50.84531101978561,4.35675831766839
L B1-2,1956,Sint-Genesius-Rode,50.74811387437947,4.361939405198446
IC 02,1826,Bellem,51.08372389725801,3.487287359353551
IC 02,1827,Zwijndrecht,51.213640244311954,4.324671903684774
IC 23-1,2303,Brussel-Zuid,50.83580082886068,4.336052466325346
IC 23-1,2304,Anzegem,50.826216033991116,3.495470091998172
L 11,6055,Dinant,50.260730671818045,4.908199789924007
L 28,877,Malderen,51.01428356975301,4.231399792037534
L L1-1,5276,Olne,50.56639308394579,5.703133531852481
L 28,856,Kortrijk,50.82441338246862,3.267774528680328
L B2-2,3755,Diegem,50.89062008445345,4.441952580833079
IC 17,2526,Hoeilaart,50.76018324853293,4.467428762947364
IC 31,3127,Duffel,51.091684329214274,4.492767295335319
L 16,5756,Namur-Herbatte,50.469169910735076,4.869133583242475
IC 03,1504,Brussel-Noord,50.85959959838314,4.361252318634824
IC 06-2,3726,Zinnik,50.57312318221692,4.069352245033392
IC 31,3127,Sint-Katelijne-Waver,51.07092770112268,4.495807348133646
L B19,4005,Sint-Job,50.793586213518765,4.360429545901712
IC 10,4326,Wolfstee,51.16893689590626,4.789732769538759
IC 09,2904,Liers,50.69817964040005,5.566911104405785
IC 31,3106,Obaix-Buzet,50.53576499907677,4.363632083286799
IC 29,3629,Brussels Airport - Zaventem,50.89642423705851,4.48395784718869
IC 31,3126,Lillois,50.64367353246769,4.363394702678375
L B19,4027,Brussel-Luxemburg,50.8388378181944,4.373972450132626
IC 25,3829,Herstal,50.66038889612703,5.622362799581048
IC 30,4206,Tielen,51.240861461973786,4.893344963001603
IC 06-2,3705,Schaarbeek,50.87869266989909,4.378431524039678
IC 06-2,3706,Ghlin,50.487523509938555,3.90639438934079
L 01,4977,Flémalle-Grande,50.6052596351082,5.481089013737427
IC 25,3827,Carnières,50.44790381004631,4.264406625278332
IC 31,3105,Weerde,50.977243209834526,4.471087335301695
IC 22,3326,Brussel-Noord,50.85959959838314,4.361252318634824
L B1-1,1756,Buda,50.90808941401188,4.417587678075591
IC 29,3628,Lede,50.970970941375874,3.985076835022102
IC 17,2526,Groenendaal,50.766147386895206,4.44935705453385
IC 03,1505,Aalter,51.09225779139449,3.447855382940146
IC 10,4326,Bouwel,51.16584351392913,4.747581819970593
IC 02,1827,Melsele,51.21082656268172,4.288506223071698
IC 02,1826,Aalter,51.09225779139449,3.447855382940146
IC 06-1,1927,Halle,50.733060256649814,4.239823954453461
IC 11,3427,Brussel-Kapellekerk,50.841176483587425,4.347842850133666
L B2-2,3777,Erps-Kwerps,50.89654505809275,4.584930600736926
IC 25,3805,Thieu,50.46967181239604,4.098467909523017
L B3,2277,Brussel-Zuid,50.83580082886068,4.336052466325346
IC 23-1,2303,Brussel-Kapellekerk,50.841176483587425,4.347842850133666
L B10-1,2077,Liedekerke,50.882547620740944,4.095286581223728
IC 25,3806,Froyennes,50.629514143330255,3.355483776176476
IC 20,2205,Denderleeuw,50.891621170603955,4.071431566061722
IC 25,3805,Bracquegnies,50.47436212331982,4.126350513636451
L B1-2,1956,Holleken,50.767015163038835,4.354770803816823
IC 02,1806,Brugge,51.19727306937378,3.216852878213191
L B1-2,1976,Vorst-Oost,50.81020033751361,4.320981153478699
IC 09,2927,Schulen-Sas,50.963577095654976,5.188162889720117
L B10-1,2055,Sint-Martens-Bodegem,50.8671660562188,4.2049393203133
L 01,4977,Leman,50.59896972583936,5.465658900379582
L 11,6077,Gendron-Celles,50.210804056411945,4.964650876726329
L B19,4005,Diesdelle,50.79612575604862,4.373898950394146
IC 04-1,705,Gent-Dampoort,51.056728987048956,3.740515250330524
L B8-4,6577,Rixensart,50.71351481096948,4.530823605161436
L G2,1876,Balegem-Zuid,50.9008046268035,3.805776390974759
L 23,2877,Aarschot,50.98449635540834,4.823698347886938
IC 01,529,Welkenraedt,50.65937064749165,5.974267220223243
IC 25,3827,Morlanwelz,50.45819475895926,4.247606842005881
IC 17,2527,Godinne,50.3488506246698,4.869974117956068
L B19,4027,Mouterij,50.83101229975816,4.378599139352779
L L1-1,5276,Trooz,50.57328744502597,5.688448772904129
IC 04-1,728,Komen,50.771963555146186,2.999344828949002
IC 01,505,Gent-Sint-Pieters,51.03551971701421,3.710101315832923
L C1,4555,Châtelet,50.41014315711594,4.521411822216678
L 28,877,Buggenhout,51.01631183819492,4.200760136726267
IC 01,504,Leuven,50.88136571115078,4.716208512981546
L B2-2,3777,Kortenberg-Goederen,50.893766016593474,4.552069735832903
IC 06-1,1905,Edingen,50.69722134520999,4.047260476616265
L B20-1,3056,Limal,50.69197975199437,4.575848696098152
IC 29,3604,Wetteren,51.00149929084834,3.881915592818523
L B2-2,3755,Zaventem,50.885632548337114,4.469909600155111
L 16,5756,Jambes-Oost,50.45480124064923,4.880327093433281
IC 06-2,3706,Erbisoeul,50.5078636253228,3.888447711073647
IC 09,2927,Schulen,50.96418013482577,5.18542062549714
IC 03,1505,Bellem,51.08372389725801,3.487287359353551
L L1-1,5256,Angleur,50.61253000192086,5.600948994820556
IC 03,1504,Schaarbeek,50.87869266989909,4.378431524039678
IC 22,3326,Brussel-Congres,50.85178018311057,4.362219760072247
L B1-2,1976,Ukkel-Stalle,50.80248548912509,4.323778171903269
IC 29,3628,Serskamp,50.98453800875389,3.959538984169734
L B2-2,3756,Hennuyères-Garage,50.6479509231809,4.173327027471045
IC 22,3306,Brussel-Zuid,50.83580082886068,4.336052466325346
IC 17,2526,Bosvoorde,50.79455788670699,4.408269528287142
IC 06-2,3726,Neufvilles,50.543523197055165,4.010763312378273
IC 06-2,3726,Neufvilles-Garage,50.5460562377274,4.015352406771576
IC 31,3127,Mechelen-Nekkerspoel,51.030011706650285,4.490206757525486
IC 17,2506,Brussel-Luxemburg,50.8388378181944,4.373972450132626
IC 09,2928,Herstal,50.66038889612703,5.622362799581048
L B1-1,1776,Weerde,50.977243209834526,4.471087335301695
IC 23-1,2329,Brussel-Noord,50.85959959838314,4.361252318634824
L B8-4,6577,Genval,50.726467561824926,4.513841930930245
L B1-1,1756,Vilvoorde,50.92414359820823,4.432813750239998
L 28,876,Waregem,50.89242835003542,3.42559831780833
IC 04-1,727,Gent-Sint-Pieters,51.03551971701421,3.710101315832923
L C1,4555,Le Campinaire,50.423793968306505,4.542815083314184
IC 02,1826,Maria-Aalter,51.10757473497731,3.386700586663826
IC 02,1827,Beveren(Waas),51.208473876872844,4.260777895162216
L B10-1,2077,Essene-Lombeek,50.882398692140114,4.115166601057234
IC 11,3405,Vorst-Zuid,50.810073408172734,4.310347515402428
IC 10,4306,Lier,51.13604368651541,4.561775772658214
L B1-2,1956,Linkebeek,50.77339212483393,4.339918296891916
IC 03,1529,Hasselt,50.93094539063631,5.326071324066093
L B2-2,3777,Kortenberg,50.89300415046401,4.543312926825426
IC 23-1,2303,Brussel-Centraal,50.84531101978561,4.35675831766839
IC 03,1504,Haren-Zuid,50.889616892134654,4.415076991166356
L B19,4005,Boondaal,50.801951889621996,4.393613977537654
IC 22,3326,Brussel-Centraal,50.84531101978561,4.35675831766839
IC 10,4327,Hamont,51.24610100168093,5.541909994902332
L B2-2,3756,Hennuyères,50.65091444999998,4.176132141679284
IC 03,1505,Hansbeke,51.07270818510425,3.537446874067181
L B19,4027,Etterbeek,50.8213075599027,4.39049871944438
L G2,1876,Balegem-Dorp,50.92004304051835,3.791056533864412
IC 04-1,705,Gentbrugge,51.03878033373764,3.756083021687756
IC 10,4326,Nijlen,51.15960165747347,4.664476042560455
IC 09,2904,Milmort,50.69342290621258,5.599557700763655
L 01,4977,Flémalle-Haute,50.59463893442038,5.456315954565175
L 28,856,Harelbeke,50.85629094542211,3.314655510959286
IC 09,2906,Antwerpen-Centraal,51.216862033537794,4.421083629947415
L 11,6055,Anseremme,50.238013493316494,4.905565624296302
L C1,4555,Farciennes,50.42914428371283,4.552667151670986
L L1-1,5276,Chaudfontaine,50.58695623775602,5.644168864995391
L 28,877,Baasrode-Zuid,51.01938772431604,4.15401461327405
IC 25,3804,Namen,50.46920536707373,4.862754782172303
IC 25,3828,Namen,50.46920536707373,4.862754782172303
IC 25,3806,Doornik,50.615141816804844,3.388492484343276
IC 02,1826,Beernem,51.127984351343564,3.329867037752411
IC 20,2205,Liedekerke,50.882547620740944,4.095286581223728
IC 10,4326,Kessel,51.151056001612034,4.618457995215415
IC 17,2527,Lustin,50.36974157323638,4.87748847850772
IC 17,2526,Watermaal,50.80971059066153,4.399853339445608
IC 29,3604,Schellebelle,51.00312616442199,3.92143307788236
IC 06-2,3726,Masnuy-Saint-Pierre,50.536335796446835,3.962143546959787
IC 23-1,2329,Brussel-Congres,50.85178018311057,4.362219760072247
IC 03,1504,Diegem,50.89062008445345,4.441952580833079
IC 04-1,705,Gentbrugge-Perron C.W.,51.029577695344535,3.752448334641758
L B2-2,3755,Nossegem,50.88344233385105,4.506060556822931
IC 02,1806,Oostkamp,51.15421490987769,3.257626153621203
L B20-1,3056,Bierges-Walibi,50.707651778207,4.595155144797867
IC 22,3326,Brussel-Kapellekerk,50.841176483587425,4.347842850133666
IC 22,3306,Brussel-Kapellekerk,50.841176483587425,4.347842850133666
L 16,5756,Dave-Saint-Martin,50.429043271156736,4.88423456717759
L L1-1,5256,Chênée,50.60835327318151,5.614856781125281
L B10-1,2055,Ternat,50.874645887542954,4.165480312447825
L B1-2,1976,Ukkel-Kalevoet,50.79221449555428,4.331745965347926
L B19,4005,Arcaden,50.809668214471365,4.398413181937825
IC 25,3829,Luik-Sint-Lambertus,50.64694935205776,5.57261263700804
IC 17,2506,Etterbeek,50.8213075599027,4.39049871944438
L B19,4027,Arcaden,50.809668214471365,4.398413181937825
IC 31,3105,Mechelen,51.01761866620954,4.483579828080118
IC 01,529,Dolhain-Gileppe,50.62692515023561,5.93868646551414
IC 25,3827,La Louvière-Zuid,50.464993656778184,4.19010515835262
IC 17,2505,Lustin,50.36974157323638,4.87748847850772
L B8-4,6577,Terhulpen,50.73811044447185,4.497448352714626
IC 03,1504,Zaventem,50.885632548337114,4.469909600155111
IC 06-2,3706,Jurbeke,50.530554529567226,3.91061322221787
L B1-1,1776,Eppegem,50.95840721352074,4.457499467095007
IC 04-1,728,Wervik,50.781855330951956,3.046976838293909
IC 23-1,2303,Brussel-Congres,50.85178018311057,4.362219760072247
IC 25,3804,Namur-Herbatte,50.469169910735076,4.869133583242475
L B3,2255,Anderlecht,50.817918890620895,4.29153935389493
IC 11,3427,Brussel-Zuid,50.83580082886068,4.336052466325346
IC 20,2227,Liedekerke,50.882547620740944,4.095286581223728
L B3,2277,Anderlecht,50.817918890620895,4.29153935389493
L B1-2,1956,Ukkel-Kalevoet,50.79221449555428,4.331745965347926
IC 02,1827,Nieuwkerken-Waas,51.18508212954049,4.184439116403614
IC 10,4306,Kessel,51.151056001612034,4.618457995215415
L B2-2,3777,Nossegem,50.88344233385105,4.506060556822931
IC 23-1,2304,Oudenaarde,50.85060234685959,3.600671251569412
L B10-1,2077,Ternat,50.874645887542954,4.165480312447825
IC 06-2,3727,Brussels Airport - Zaventem,50.89642423705851,4.48395784718869
IC 17,2506,Watermaal,50.80971059066153,4.399853339445608
IC 03,1504,Nossegem,50.88344233385105,4.506060556822931
IC 29,3629,Schaarbeek,50.87869266989909,4.378431524039678
L 23,2877,Begijnendijk,51.02202332433806,4.800439914572373
IC 29,3628,Schellebelle,51.00312616442199,3.92143307788236
IC 31,3126,Nijvel,50.6004932591792,4.335288481441468
IC 17,2526,Etterbeek,50.8213075599027,4.39049871944438
IC 22,3306,Brussel-Centraal,50.84531101978561,4.35675831766839
IC 03,1505,Landegem,51.06421597718289,3.57704576219589
IC 04-1,727,Gentbrugge-Perron C.W.,51.029577695344535,3.752448334641758
IC 04-1,727,Gentbrugge,51.03878033373764,3.756083021687756
IC 02,1827,Sint-Niklaas-Oost,51.176623377622434,4.159519894481113
IC 25,3805,La Louvière-Zuid,50.464993656778184,4.19010515835262
IC 25,3828,Ronet,50.457655320725806,4.828601683088753
L B1-2,1976,Linkebeek,50.77339212483393,4.339918296891916
IC 31,3127,Mechelen,51.01761866620954,4.483579828080118
IC 02,1806,Beernem,51.127984351343564,3.329867037752411
L 01,4977,Engis,50.58266006063994,5.402218863560586
L B20-1,3056,Waver,50.71613796385702,4.605127669873097
L B1-1,1756,Eppegem,50.95840721352074,4.457499467095007
L G2,1876,Scheldewindeke,50.93780300159805,3.777613995483383
IC 17,2506,Bosvoorde,50.79455788670699,4.408269528287142
L B19,4027,Boondaal,50.801951889621996,4.393613977537654
L 11,6077,Anseremme,50.238013493316494,4.905565624296302
IC 30,4206,Herentals,51.18107296652878,4.828554945607912
IC 23-1,2329,Brussel-Centraal,50.84531101978561,4.35675831766839
IC 31,3106,Nijvel,50.6004932591792,4.335288481441468
IC 22,3306,Brussel-Congres,50.85178018311057,4.362219760072247
L B2-2,3755,Kortenberg,50.89300415046401,4.543312926825426
IC 29,3604,Serskamp,50.98453800875389,3.959538984169734
IC 09,2906,Antwerpen-Berchem,51.1988702961587,4.432979473543215
IC 06-2,3706,Masnuy-Saint-Pierre,50.536335796446835,3.962143546959787
IC 03,1504,Kortenberg,50.89300415046401,4.543312926825426
IC 25,3829,Luik-Carré,50.64016117047732,5.561580820714428
IC 09,2928,Milmort,50.69342290621258,5.599557700763655
IC 01,528,Leuven,50.88136571115078,4.716208512981546
L 16,5756,Naninne,50.41937412405278,4.93031043044587
L L1-1,5256,Chaudfontaine,50.58695623775602,5.644168864995391
L B2-2,3756,Tubeke,50.69169220545364,4.20581147629095
IC 06-2,3726,Jurbeke,50.530554529567226,3.91061322221787
IC 03,1505,Drongen,51.047503146402754,3.653586159319735
L B10-1,2055,Essene-Lombeek,50.882398692140114,4.115166601057234
IC 09,2927,Diest,50.99342002336958,5.050066472491223
L L1-1,5276,Chênée,50.60835327318151,5.614856781125281
L C1,4555,Aiseau,50.42954055375694,4.584376485514419
L 28,876,Harelbeke,50.85629094542211,3.314655510959286
IC 10,4306,Nijlen,51.15960165747347,4.664476042560455
L 02,556,Brugge,51.19727306937378,3.216852878213191
IC 25,3828,Flawinne,50.456249957652616,4.806300471605369
IC 02,1826,Oostkamp,51.15421490987769,3.257626153621203
IC 23-2,2826,Brugge,51.19727306937378,3.216852878213191
IC 08,2605,Leuven,50.88136571115078,4.716208512981546
IC 11,3405,Brussel-Zuid,50.83580082886068,4.336052466325346
L B1-2,1956,Ukkel-Stalle,50.80248548912509,4.323778171903269
IC 11,3427,Vorst-Zuid,50.810073408172734,4.310347515402428
IC 23-1,2303,Brussel-Noord,50.85959959838314,4.361252318634824
L B10-1,2077,Sint-Martens-Bodegem,50.8671660562188,4.2049393203133
L B19,4005,Etterbeek,50.8213075599027,4.39049871944438
IC 31,3105,Mechelen-Nekkerspoel,51.030011706650285,4.490206757525486
L B2-2,3755,Kortenberg-Goederen,50.893766016593474,4.552069735832903
L B1-2,1976,Holleken,50.767015163038835,4.354770803816823
L 29,4856,Geraardsbergen,50.770949248522925,3.872417489184951
IC 03,1504,Erps-Kwerps,50.89654505809275,4.584930600736926
L B8-4,6577,Hoeilaart,50.76018324853293,4.467428762947364
IC 09,2904,Herstal,50.66038889612703,5.622362799581048
L 08,6256,Gembloux,50.57124514484745,4.690630393213297
L 28,856,Waregem,50.89242835003542,3.42559831780833
L 23,2877,Booischot,51.037499464688636,4.772796366390144
IC 02,1806,Maria-Aalter,51.10757473497731,3.386700586663826
IC 23-1,2329,Brussel-Kapellekerk,50.841176483587425,4.347842850133666
L 11,6055,Gendron-Celles,50.210804056411945,4.964650876726329
L 28,877,Dendermonde,51.022951980794005,4.101327011759538
L 10-2,956,Rochefort-Jemelle,50.16041579741265,5.266796362528351
IC 04-1,728,Menen,50.79946001891374,3.113887199330697
IC 03,1529,Alken,50.886400235927916,5.291749444935051
IC 25,3805,Morlanwelz,50.45819475895926,4.247606842005881
L B1-2,1956,Vorst-Oost,50.81020033751361,4.320981153478699
IC 25,3806,Antoing,50.569648067428595,3.451351534219263
IC 11,3427,Ruisbroek,50.79177235834205,4.295521156543186
IC 11,3406,La Louvière-Zuid,50.464993656778184,4.19010515835262
IC 11,3405,Brussel-Kapellekerk,50.841176483587425,4.347842850133666
IC 06-1,1927,Edingen,50.69722134520999,4.047260476616265
L B2-2,3777,Zaventem,50.885632548337114,4.469909600155111
IC 25,3804,Marche-les-Dames,50.480718861804796,4.964576135362847
IC 10,4326,Lier,51.13604368651541,4.561775772658214
IC 06-2,3706,Neufvilles,50.543523197055165,4.010763312378273
IC 17,2506,Groenendaal,50.766147386895206,4.44935705453385
L B19,4005,Mouterij,50.83101229975816,4.378599139352779
L B1-1,1756,Weerde,50.977243209834526,4.471087335301695
IC 29,3630,Landen,50.7478945465236,5.079627434738533
IC 17,2505,Godinne,50.3488506246698,4.869974117956068
L 01,4977,Hermalle-sous-Huy,50.57190883954576,5.379497993919575
L G2,1876,Moortsele,50.95295090340576,3.780982223065362
IC 25,3827,Bracquegnies,50.47436212331982,4.126350513636451
IC 30,4206,Wolfstee,51.16893689590626,4.789732769538759
IC 03,1504,Veltem,50.90055001720875,4.633517445095211
L B19,4027,Diesdelle,50.79612575604862,4.373898950394146
IC 09,2906,Mortsel,51.18289070974223,4.448811507867791
IC 29,3628,Wetteren,51.00149929084834,3.881915592818523
IC 06-2,3706,Neufvilles-Garage,50.5460562377274,4.015352406771576
L B20-1,3056,Basse-Wavre,50.72414363271483,4.621220383958832
L B1-1,1776,Vilvoorde,50.92414359820823,4.432813750239998
IC 17,2506,Hoeilaart,50.76018324853293,4.467428762947364
IC 09,2927,Zichem,51.006658165424646,4.987321399197209
L B10-1,2055,Liedekerke,50.882547620740944,4.095286581223728
IC 06-2,3726,Erbisoeul,50.5078636253228,3.888447711073647
IC 01,529,Verviers-Paleis,50.59092927829129,5.865284693352242
IC 31,3126,Obaix-Buzet,50.53576499907677,4.363632083286799
IC 01,528,Herent,50.90358929255643,4.672141055672479
IC 17,2526,Brussel-Luxemburg,50.8388378181944,4.373972450132626
IC 03,1504,Herent,50.90358929255643,4.672141055672479
L B2-2,3756,Lembeek,50.71511214097718,4.221567770089727
L 16,5756,Sart-Bernard,50.406741726327766,4.948563267648817
L B8-4,6577,Groenendaal,50.766147386895206,4.44935705453385
IC 25,3827,Thieu,50.46967181239604,4.098467909523017
L 28,877,Oudegem,51.014737627992446,4.062437122289404
IC 04-1,727,Gent-Dampoort,51.056728987048956,3.740515250330524
L L1-1,5276,Angleur,50.61253000192086,5.600948994820556
IC 01,503,Welkenraedt,50.65937064749165,5.974267220223243
IC 23-2,2826,Brugge-Sint-Pieters,51.22266043095538,3.201678747582974
IC 08,2606,Antwerpen-Centraal,51.216862033537794,4.421083629947415
IC 23-1,2304,Sint-Denijs-Boekel,50.874198889945404,3.698421279546744
IC 08,2627,Leuven,50.88136571115078,4.716208512981546
IC 25,3828,Floreffe,50.44348110262792,4.762999763962485
IC 10,4306,Bouwel,51.16584351392913,4.747581819970593
IC 25,3804,Marche-les-Dames-Marchandises,50.48053191922914,4.967202412995651
IC 02,1827,Sint-Niklaas,51.17159935285642,4.143282196338587
IC 20,2205,Anderlecht,50.817918890620895,4.29153935389493
L B3,2255,Brussel-Zuid,50.83580082886068,4.336052466325346
IC 23-1,2303,Schaarbeek,50.87869266989909,4.378431524039678
IC 25,3828,Franière,50.439609337705065,4.733609958418976
IC 25,3805,Carnières,50.44790381004631,4.264406625278332
IC 11,3405,Brussel-Centraal,50.84531101978561,4.35675831766839
IC 25,3804,Namêche,50.470279570029426,4.99842958361612
IC 08,2628,Hasselt,50.93094539063631,5.326071324066093
IC 11,3427,Lot,50.765128381018265,4.272571084560079
L B1-1,1776,Buda,50.90808941401188,4.417587678075591
IC 29,3629,Brussel-Noord,50.85959959838314,4.361252318634824
IC 31,3105,Sint-Katelijne-Waver,51.07092770112268,4.495807348133646
L B1-2,1976,Sint-Genesius-Rode,50.74811387437947,4.361939405198446
IC 02,1806,Aalter,51.09225779139449,3.447855382940146
IC 31,3127,Weerde,50.977243209834526,4.471087335301695
IC 10,4327,Neerpelt,51.22237547958096,5.437315565832811
IC 06-2,3726,Ghlin,50.487523509938555,3.90639438934079
IC 32,827,Kortrijk,50.82441338246862,3.267774528680328
L B6,1577,Geraardsbergen,50.770949248522925,3.872417489184951
IC 04-1,705,Gent-Sint-Pieters,51.03551971701421,3.710101315832923
IC 09,2928,Liers,50.69817964040005,5.566911104405785
IC 31,3106,Lillois,50.64367353246769,4.363394702678375
L B2-2,3755,Erps-Kwerps,50.89654505809275,4.584930600736926
IC 29,3604,Lede,50.970970941375874,3.985076835022102
IC 25,3827,Havré,50.47086130374264,4.058356446670643
L 11,6077,Dinant,50.260730671818045,4.908199789924007
IC 06-1,1905,Halle,50.733060256649814,4.239823954453461
L L1-1,5256,Trooz,50.57328744502597,5.688448772904129
L 01,4977,Haute-Flône,50.55424859743379,5.331294580631765
IC 04-1,706,Antwerpen-Centraal,51.216862033537794,4.421083629947415
L C1,4555,Tamines,50.432082424904884,4.60886693717308
IC 01,527,Gent-Sint-Pieters,51.03551971701421,3.710101315832923
L 10-2,956,Forrières,50.13309074777786,5.276553146611916
L C2-2,4376,Charleroi-Centraal,50.40419960613283,4.438439317373349
IC 11,3427,Buizingen,50.75154826326621,4.258657550563639
IC 10,4306,Wolfstee,51.16893689590626,4.789732769538759
L B2-2,3777,Diegem,50.89062008445345,4.441952580833079
IC 06-2,3727,Schaarbeek,50.87869266989909,4.378431524039678
L B10-1,2077,Dilbeek,50.86638979130907,4.243574071280418
IC 25,3806,Maubray,50.5473596412106,3.496016879443089
IC 09,2906,Boechout,51.16382800159388,4.49404699525959
L 08,6256,Lonzée,50.55197706629923,4.720151428541858
L B19,4027,Sint-Job,50.793586213518765,4.360429545901712
IC 30,4206,Bouwel,51.16584351392913,4.747581819970593
IC 31,3105,Duffel,51.091684329214274,4.492767295335319
L 16,5756,Bois d'Ausse,50.40132405813825,4.98626175713774
IC 01,528,Veltem,50.90055001720875,4.633517445095211
IC 02,1806,Bellem,51.08372389725801,3.487287359353551
IC 17,2506,Terhulpen,50.73811044447185,4.497448352714626
IC 17,2527,Jambes,50.45397911996434,4.875468217584368
IC 29,3628,Kwatrecht,50.99155010054474,3.833335262496046
IC 22,3306,Brussel-Noord,50.85959959838314,4.361252318634824
L B20-1,3056,Gastuche,50.73643857537926,4.649935387130403
IC 01,529,Verviers-Centraal,50.587801914284064,5.854635277252846
IC 09,2927,Testelt,51.009863921942355,4.945833786595188
L G2,1876,Landskouter,50.970632711493394,3.791317792734344
IC 31,3127,Eppegem,50.95840721352074,4.457499467095007
IC 23-1,2329,Brussel-Zuid,50.83580082886068,4.336052466325346
L B1-2,1976,De Hoek,50.73924115834706,4.370342368877128
L 01,4956,Namen,50.46920536707373,4.862754782172303
L 29,4856,Acren,50.73286590540343,3.847018189191549
IC 17,2526,Brussel-Schuman,50.842848617923735,4.380023585783107
IC 29,3628,Melle,51.002749921068165,3.796939037051605
L L1-1,5256,Olne,50.56639308394579,5.703133531852481
IC 17,2506,Genval,50.726467561824926,4.513841930930245
IC 29,3629,Brussel-Congres,50.85178018311057,4.362219760072247
IC 01,528,Erps-Kwerps,50.89654505809275,4.584930600736926
IC 25,3827,Obourg-Marchandises,50.470021634500924,4.016410270720788
L 11,6055,Houyet,50.19034554043201,5.005903558228376
L 13-2,5977,Florenville,49.70723922741239,5.331285482846186
L 28,877,Schoonaarde,51.003138571181125,4.011262908092702
IC 25,3806,Callenelle,50.527311586615326,3.526278070673758
IC 11,3405,Brussel-Congres,50.85178018311057,4.362219760072247
IC 20,2228,Dendermonde,51.022951980794005,4.101327011759538
IC 23-2,2805,Brussel-Zuid,50.83580082886068,4.336052466325346
L 02,556,Oostkamp,51.15421490987769,3.257626153621203
L B3,2255,Brussel-Kapellekerk,50.841176483587425,4.347842850133666
IC 23-1,2303,Haren-Zuid,50.889616892134654,4.415076991166356
IC 25,3804,Sclaigneaux,50.49212088315084,5.026460713868468
IC 02,1826,Brugge,51.19727306937378,3.216852878213191
IC 23-1,2304,Munkzwalm,50.875656666067506,3.731514205002289
L B3,2277,Liedekerke,50.882547620740944,4.095286581223728
IC 25,3805,Piéton,50.43511682114374,4.286129350500978
IC 02,1827,Belsele,51.15105293420193,4.088971325808107
L C1,4576,Ottignies,50.671773574303224,4.570373990520092
L C4,3927,Couvin,50.057799568191655,4.492998249775371
IC 25,3805,Forchies,50.433128757386235,4.323472828215522
IC 02,1827,Sinaai,51.143500701126385,4.068856389093756
L B8-4,6577,Bosvoorde,50.79455788670699,4.408269528287142
L 01,4977,Amay,50.54592191603607,5.320609487870715
IC 17,2506,Rixensart,50.71351481096948,4.530823605161436
IC 02,1806,Hansbeke,51.07270818510425,3.537446874067181
L B2-2,3755,Veltem,50.90055001720875,4.633517445095211
IC 03,1505,Gent-Sint-Pieters,51.03551971701421,3.710101315832923
L 23,2877,Heist-op-den-Berg,51.073554825164585,4.709356990822297
IC 06-1,1905,Buizingen,50.75154826326621,4.258657550563639
IC 10,4326,Boechout,51.16382800159388,4.49404699525959
IC 09,2904,Luik-Sint-Lambertus,50.64694935205776,5.57261263700804
IC 25,3829,Luik-Guillemins,50.62555824033023,5.565379651677738
L L1-1,5256,Fraipont,50.56512345525054,5.723431941853723
IC 06-2,3706,Zinnik,50.57312318221692,4.069352245033392
L 01,4956,Namur-Herbatte,50.469169910735076,4.869133583242475
IC 10,4327,Overpelt,51.215549622947385,5.423126886234479
IC 22,3327,Antwerpen-Centraal,51.216862033537794,4.421083629947415
IC 31,3105,Kontich-Lint,51.13368368793974,4.47689680687504
L G2,1876,Gontrode,50.97984015695545,3.801555019043831
IC 01,528,Kortenberg,50.89300415046401,4.543312926825426
L 16,5756,Courrière,50.38773555674349,4.995789831137567
IC 25,3827,Obourg,50.46980723102854,4.006727859438542
IC 29,3630,Neerwinden,50.76376087904074,5.036335028170957
IC 01,527,Drongen,51.047503146402754,3.653586159319735
IC 04-1,728,Wevelgem,50.81106670481992,3.182483664800671
L C1,4555,Auvelais,50.449170411135086,4.63070038869451
IC 25,3828,Moustier-Garage,50.452251562650595,4.676398912033878
L B10-1,2077,Groot-Bijgaarden,50.86839848514289,4.274515963982332
IC 25,3804,Château-de-Seilles,50.497212725023616,5.081752631616731
L B3,2255,Brussel-Centraal,50.84531101978561,4.35675831766839
IC 08,2605,Wezemaal,50.95636089869388,4.748012297469645
IC 08,2606,Antwerpen-Berchem,51.1988702961587,4.432979473543215
IC 20,2206,Gent-Sint-Pieters,51.03551971701421,3.710101315832923
IC 20,2228,Sint-Gillis(Dendermonde),51.02208185742186,4.117208570505743
L B2-2,3777,Haren-Zuid,50.889616892134654,4.415076991166356
IC 23-2,2805,Brussel-Kapellekerk,50.841176483587425,4.347842850133666
IC 08,2627,Herent,50.90358929255643,4.672141055672479
IC 11,3406,La Louvière-Centrum,50.477715304331944,4.180068630195054
IC 23-1,2303,Diegem,50.89062008445345,4.441952580833079
IC 25,3828,Moustier,50.452728270830725,4.693813691441016
IC 06-1,1928,Brussels Airport - Zaventem,50.89642423705851,4.48395784718869
L B6,1577,Schendelbeke,50.79778703486261,3.899162975185788
L B1-1,1776,Schaarbeek,50.87869266989909,4.378431524039678
IC 17,2505,Yvoir,50.32085000245575,4.878760881433763
IC 31,3105,Hove,51.15406191789155,4.465214254147384
L B19,4005,Brussel-Luxemburg,50.8388378181944,4.373972450132626
IC 17,2527,Namur-Herbatte,50.469169910735076,4.869133583242475
IC 29,3629,Brussel-Centraal,50.84531101978561,4.35675831766839
IC 29,3628,Merelbeke,51.020057593681734,3.764835020911601
IC 06-1,1905,Lot,50.765128381018265,4.272571084560079
L B2-2,3756,Halle,50.733060256649814,4.239823954453461
L B20-1,3056,Eerken,50.75433674841785,4.662366455406936
IC 22,3306,Schaarbeek,50.87869266989909,4.378431524039678
IC 17,2506,Profondsart,50.69384598089478,4.549496108321164
IC 09,2927,Langdorp,51.00246923181287,4.863538493784459
L 08,6256,Beuzet,50.532974982431014,4.750194075854363
IC 01,528,Nossegem,50.88344233385105,4.506060556822931
L B1-2,1976,Waterloo,50.715533973277154,4.383453531843166
IC 03,1504,Leuven,50.88136571115078,4.716208512981546
IC 02,1806,Landegem,51.06421597718289,3.57704576219589
L 28,856,Deinze,50.9781328604359,3.535002801077202
IC 31,3106,Eigenbrakel,50.68475914261351,4.37582344502392
L B19,4027,Linkebeek,50.77339212483393,4.339918296891916
IC 31,3126,Luttre,50.50601206060288,4.384250449864734
IC 31,3127,Vilvoorde,50.92414359820823,4.432813750239998
IC 25,3827,Nimy,50.47176943541776,3.95653982987247
L L1-1,5276,Luik-Guillemins,50.62555824033023,5.565379651677738
IC 01,527,Landegem,51.06421597718289,3.57704576219589
L 28,877,Wichelen,51.001758503990175,3.974883903141969
IC 25,3828,Ham-sur-Sambre,50.45281278225799,4.672912869837899
IC 20,2228,Lebbeke,51.00475356147399,4.134881157174673
IC 06-1,1927,Opzullik,50.663205398063035,3.937245875917736
IC 20,2227,Denderleeuw,50.891621170603955,4.071431566061722
L 27,2777,Sint-Niklaas,51.17159935285642,4.143282196338587
L B1-2,1956,Brussel-Zuid,50.83580082886068,4.336052466325346
IC 23-1,2303,Zaventem,50.885632548337114,4.469909600155111
IC 08,2627,Veltem,50.90055001720875,4.633517445095211
IC 11,3405,Brussel-Noord,50.85959959838314,4.361252318634824
IC 25,3806,Péruwelz,50.51361346641127,3.59206286807832
IC 11,3427,Halle,50.733060256649814,4.239823954453461
L B3,2255,Brussel-Congres,50.85178018311057,4.362219760072247
IC 08,2606,Mortsel-Deurnesteenweg,51.18231715581698,4.447187644772542
L B3,2277,Denderleeuw,50.891621170603955,4.071431566061722
IC 10,4306,Herentals,51.18107296652878,4.828554945607912
IC 06-2,3727,Brussel-Noord,50.85959959838314,4.361252318634824
IC 01,506,Oostende,51.22794248315333,2.926625863197556
IC 20,2228,Heizijde,50.98889804389831,4.157254201988882
IC 25,3804,Andenne,50.496828765415096,5.095965480077196
L B10-1,2077,Sint-Agatha-Berchem,50.873033681208796,4.290747342200437
IC 02,1827,Lokeren-Oost,51.10977280180321,3.991494840923161
IC 22,3306,Buda,50.90808941401188,4.417587678075591
IC 25,3829,Sclessin,50.61036517564539,5.55669507871075
L 28,856,Deinze-Wijksporen,50.9790461798649,3.540645659081197
L 01,4977,Ampsin,50.53917375822986,5.288862316887595
IC 31,3105,Mortsel-Oude God,51.171808099384776,4.455388660748518
IC 06-1,1905,Ruisbroek,50.79177235834205,4.295521156543186
L B6,1577,Idegem,50.801685791171266,3.921425440783262
IC 29,3604,Aalst,50.94312325212488,4.038683507111515
IC 01,529,Pepinster,50.56851509165158,5.810268537289398
IC 01,528,Diegem,50.89062008445345,4.441952580833079
IC 01,528,Zaventem,50.885632548337114,4.469909600155111
L B19,4027,Holleken,50.767015163038835,4.354770803816823
IC 30,4206,Nijlen,51.15960165747347,4.664476042560455
L B8-4,6577,Watermaal,50.80971059066153,4.399853339445608
IC 23-1,2329,Anderlecht,50.817918890620895,4.29153935389493
IC 09,2906,Lier,51.13604368651541,4.561775772658214
IC 09,2904,Luik-Carré,50.64016117047732,5.561580820714428
IC 10,4326,Mortsel,51.18289070974223,4.448811507867791
L B20-1,3056,Florival,50.761456831505605,4.654204552702843
L L1-1,5256,Nessonvaux,50.57198592493546,5.741746104791544
IC 29,3629,Brussel-Kapellekerk,50.841176483587425,4.347842850133666
L 16,5756,Assesse,50.368675498227645,5.021448905914102
IC 04-1,705,De Pinte,50.998952524822585,3.655383901672195
L C2-2,4376,Marchienne-au-Pont,50.41221701003429,4.394312434115766
L 10-2,956,Grupont,50.09050446184591,5.280534452223534
L C1,4555,Jemeppe-sur-Sambre-Marchandise,50.44797745287747,4.657785895311827
L 02,577,Gent-Sint-Pieters,51.03551971701421,3.710101315832923
IC 04-1,706,Antwerpen-Berchem,51.1988702961587,4.432979473543215
IC 01,527,Hansbeke,51.07270818510425,3.537446874067181
IC 04-1,727,Beervelde,51.087172443782855,3.879980395685934
IC 23-2,2805,Brussel-Centraal,50.84531101978561,4.35675831766839
IC 25,3828,Jemeppe-sur-Sambre,50.45094942294263,4.662626762258042
IC 08,2627,Erps-Kwerps,50.89654505809275,4.584930600736926
IC 08,2606,Mortsel-Oude God,51.171808099384776,4.455388660748518
IC 03,1529,Sint-Truiden,50.81768876585601,5.176520546000151
IC 11,3406,La Louvière-Industriestation,50.48597883133482,4.193672918052559
L 02,556,Beernem,51.127984351343564,3.329867037752411
L B1-2,1956,Brussel-Kapellekerk,50.841176483587425,4.347842850133666
IC 25,3829,Tilleur,50.619325790518765,5.52959613022457
IC 29,3630,Ezemaal,50.77212949781888,4.994219913271197
IC 31,3105,Mortsel-Deurnesteenweg,51.18231715581698,4.447187644772542
L 29,4856,Lessen,50.71290774870706,3.836861179155217
IC 01,528,Haren-Zuid,50.889616892134654,4.415076991166356
L B19,4005,Brussel-Schuman,50.842848617923735,4.380023585783107
L 23,2877,Melkouwen,51.095163902445975,4.67120807182244
IC 31,3127,Buda,50.90808941401188,4.417587678075591
IC 06-1,1906,Doornik,50.615141816804844,3.388492484343276
L B2-2,3756,Buizingen,50.75154826326621,4.258657550563639
L 08,6256,Saint-Denis-Bovesse,50.521297001857974,4.767791995102788
L B2-2,3755,Herent,50.90358929255643,4.672141055672479
IC 25,3829,Pont-de-Seraing,50.619916699168094,5.511349156465087
L 11,6077,Yvoir,50.32085000245575,4.878760881433763
IC 25,3829,Jemeppe-sur-Meuse,50.61841627390551,5.497799707765852
IC 06-1,1905,Vorst-Zuid,50.810073408172734,4.310347515402428
IC 31,3106,Waterloo,50.715533973277154,4.383453531843166
L B1-1,1777,Antwerpen-Centraal,51.216862033537794,4.421083629947415
IC 22,3327,Antwerpen-Berchem,51.1988702961587,4.432979473543215
L 16,5756,Florée,50.357541983874405,5.056427261179839
IC 02,1806,Drongen,51.047503146402754,3.653586159319735
L B10-1,2055,Denderleeuw,50.891621170603955,4.071431566061722
L G2,1876,Melle,51.002749921068165,3.796939037051605
L G3,656,Gent-Sint-Pieters,51.03551971701421,3.710101315832923
L C1,4555,Jemeppe-sur-Sambre,50.45094942294263,4.662626762258042
IC 01,527,Bellem,51.08372389725801,3.487287359353551
L 28,877,Schellebelle,51.00312616442199,3.92143307788236
IC 04-1,728,Bissegem,50.82579327658622,3.224088411817595
L C1,4576,Limal,50.69197975199437,4.575848696098152
IC 20,2228,Opwijk,50.97461822357513,4.187540293365119
IC 08,2628,Schulen-Sas,50.963577095654976,5.188162889720117
IC 06-2,3727,Brussel-Congres,50.85178018311057,4.362219760072247
IC 08,2606,Hove,51.15406191789155,4.465214254147384
IC 25,3828,Jemeppe-sur-Sambre-Marchandise,50.44797745287747,4.657785895311827
IC 08,2627,Kortenberg,50.89300415046401,4.543312926825426
IC 08,2627,Kortenberg-Goederen,50.893766016593474,4.552069735832903
IC 20,2227,Erembodegem,50.91929248249657,4.055478044299816
IC 11,3427,Lembeek,50.71511214097718,4.221567770089727
IC 08,2606,Kontich-Lint,51.13368368793974,4.47689680687504
IC 25,3804,Java,50.51387710977643,5.160698724076279
L 23,2856,Antwerpen-Centraal,51.216862033537794,4.421083629947415
IC 06-1,1928,Zaventem,50.885632548337114,4.469909600155111
IC 20,2205,Brussel-Zuid,50.83580082886068,4.336052466325346
L B3,2277,Welle,50.90304992098791,4.05086651791031
IC 02,1827,Lokeren,51.1070280724398,3.985383235145282
L B1-2,1956,Brussel-Centraal,50.84531101978561,4.35675831766839
L B2-2,3777,Schaarbeek,50.87869266989909,4.378431524039678
IC 23-2,2805,Brussel-Congres,50.85178018311057,4.362219760072247
IC 25,3805,Marchienne-au-Pont,50.41221701003429,4.394312434115766
L 08,6256,Rhisnes-Sas,50.50059749700802,4.799814589897698
IC 04-1,705,Deinze-Wijksporen,50.9790461798649,3.540645659081197
L 01,4956,Marche-les-Dames,50.480718861804796,4.964576135362847
L B1-1,1756,Mechelen,51.01761866620954,4.483579828080118
L B1-1,1776,Brussel-Noord,50.85959959838314,4.361252318634824
L B20-1,3056,Pecrot,50.779266845086774,4.651601336707822
IC 01,528,Schaarbeek,50.87869266989909,4.378431524039678
IC 31,3126,Courcelles-Motte,50.46202986102244,4.400412086453594
IC 09,2905,Hasselt,50.93094539063631,5.326071324066093
IC 01,529,Nessonvaux,50.57198592493546,5.741746104791544
IC 09,2928,Glaaien,50.750527352637484,5.535236934399886
L 29,4856,Houraing,50.702881501429985,3.835231437708677
L B6,1577,Zandbergen,50.80691967863315,3.956989676456527
L B19,4027,Sint-Genesius-Rode,50.74811387437947,4.361939405198446
IC 31,3106,De Hoek,50.73924115834706,4.370342368877128
IC 10,4327,Lommel,51.211527124043826,5.310537299130095
IC 04-1,705,Deinze,50.9781328604359,3.535002801077202
L C1,4555,Ham-sur-Sambre,50.45281278225799,4.672912869837899
IC 04-1,706,Antwerpen-Zuid,51.19721428415948,4.391779006927757
L C1,4555,Moustier-Garage,50.452251562650595,4.676398912033878
L L1-1,5276,Luik-Carré,50.64016117047732,5.561580820714428
L 11,6055,Beauraing,50.113835526135354,4.957023362536677
L C2-2,4376,Roux,50.44308266140329,4.394000597539677
IC 20,2206,Merelbeke,51.020057593681734,3.764835020911601
IC 20,2228,Merchtem,50.95391293799017,4.223681249280842
L B3,2255,Brussel-Noord,50.85959959838314,4.361252318634824
IC 08,2627,Nossegem,50.88344233385105,4.506060556822931
IC 08,2628,Schulen,50.96418013482577,5.18542062549714
IC 23-2,2826,Heist,51.334177499078464,3.240489638663327
L B10-1,2077,Jette,50.88120457651592,4.332923410788644
IC 23-1,2304,Zottegem,50.86909906459784,3.814701035934551
IC 08,2605,Aarschot,50.98449635540834,4.823698347886938
IC 01,529,Fraipont,50.56512345525054,5.723431941853723
IC 31,3106,Sint-Genesius-Rode,50.74811387437947,4.361939405198446
IC 25,3829,Flémalle-Grande,50.6052596351082,5.481089013737427
L 01,4956,Marche-les-Dames-Marchandises,50.48053191922914,4.967202412995651
L B19,4027,De Hoek,50.73924115834706,4.370342368877128
IC 22,3306,Vilvoorde,50.92414359820823,4.432813750239998
L B19,4005,Schaarbeek-Josaphat,50.86036295580361,4.395006896335754
IC 32,827,Ingelmunster,50.91484341700642,3.254708319352296
IC 06-2,3706,'s-Gravenbrakel,50.60484523104407,4.138162426655214
L B2-2,3756,Lot,50.765128381018265,4.272571084560079
IC 29,3604,Erembodegem,50.91929248249657,4.055478044299816
IC 31,3105,Antwerpen-Berchem,51.1988702961587,4.432979473543215
IC 22,3327,Mortsel-Deurnesteenweg,51.18231715581698,4.447187644772542
IC 30,4206,Kessel,51.151056001612034,4.618457995215415
IC 25,3829,Leman,50.59896972583936,5.465658900379582
IC 31,3127,Schaarbeek,50.87869266989909,4.378431524039678
IC 17,2527,Namen,50.46920536707373,4.862754782172303
L B19,4005,Meiser,50.854757009079435,4.394274208667772
IC 10,4326,Antwerpen-Berchem,51.1988702961587,4.432979473543215
L B1-2,1976,Eigenbrakel,50.68475914261351,4.37582344502392
L 16,5756,Natoye,50.343363707549074,5.061281004187228
L L1-1,5256,Pepinster,50.56851509165158,5.810268537289398
L 01,4977,Hoei,50.527376421412576,5.234037173214917
L B19,4005,Evere,50.8682065685372,4.401355062293686
IC 25,3827,Bergen,50.454436770348934,3.942380575452241
L B8-4,6577,Etterbeek,50.8213075599027,4.39049871944438
IC 01,529,Olne,50.56639308394579,5.703133531852481
L B6,1577,Appelterre,50.81314095122116,3.97235371963076
L 08,6256,Rhisnes,50.4993004915618,4.801803854068583
IC 29,3629,Brussel-Zuid,50.83580082886068,4.336052466325346
IC 31,3106,Holleken,50.767015163038835,4.354770803816823
L B1-1,1776,Brussel-Congres,50.85178018311057,4.362219760072247
L 23,2877,Berlaar,51.113708437795054,4.638257975914391
L 28,856,De Pinte,50.998952524822585,3.655383901672195
IC 17,2506,Ottignies,50.671773574303224,4.570373990520092
IC 31,3126,Roux,50.44308266140329,4.394000597539677
L B19,4028,Leuven,50.88136571115078,4.716208512981546
L 28,877,Wetteren,51.00149929084834,3.881915592818523
IC 01,527,Aalter,51.09225779139449,3.447855382940146
L B8-4,6556,Brussel-Zuid,50.83580082886068,4.336052466325346
IC 01,505,Anderlecht,50.817918890620895,4.29153935389493
IC 20,2205,Brussel-Kapellekerk,50.841176483587425,4.347842850133666
L B1-2,1956,Brussel-Congres,50.85178018311057,4.362219760072247
L 02,556,Maria-Aalter,51.10757473497731,3.386700586663826
L C1,4576,Bierges-Walibi,50.707651778207,4.595155144797867
IC 25,3804,Bas-Oha,50.52248172084146,5.191103060084089
IC 08,2606,Duffel,51.091684329214274,4.492767295335319
IC 06-2,3727,Brussel-Centraal,50.84531101978561,4.35675831766839
IC 23-1,2306,Oostende,51.22794248315333,2.926625863197556
L C4,3927,Mariembourg,50.09533742372334,4.525417233992525
IC 11,3427,Tubeke,50.69169220545364,4.20581147629095
IC 08,2606,Sint-Katelijne-Waver,51.07092770112268,4.495807348133646
IC 10,4306,Olen,51.17402976913898,4.902499251852356
L B10-1,2077,Bockstael,50.87943983166831,4.348514000855896
IC 25,3828,Auvelais,50.449170411135086,4.63070038869451
IC 25,3806,Blaton,50.505954521715246,3.66570591977767
IC 20,2228,Mollem,50.932896546874765,4.216581185073014
L B3,2277,Haaltert,50.907066641303196,4.021716617534101
IC 17,2526,Brussel-Noord,50.85959959838314,4.361252318634824
IC 01,529,Trooz,50.57328744502597,5.688448772904129
L B20-1,3056,Sint-Joris-Weert,50.80129671879586,4.651860787104162
L G2,1876,Merelbeke,51.020057593681734,3.764835020911601
IC 22,3327,Mortsel-Oude God,51.171808099384776,4.455388660748518
L 01,4956,Namêche,50.470279570029426,4.99842958361612
IC 25,3829,Flémalle-Haute,50.59463893442038,5.456315954565175
IC 32,827,Izegem-Sas,50.92120714692377,3.219680037338991
L B1-1,1756,Mechelen-Nekkerspoel,51.030011706650285,4.490206757525486
L 29,4856,Papegem,50.687655087352056,3.824299419853787
IC 09,2906,Berlaar,51.113708437795054,4.638257975914391
L 11,6077,Godinne,50.3488506246698,4.869974117956068
IC 03,1504,Vertrijk,50.83594652922674,4.836594370794067
L G3,677,Lokeren,51.1070280724398,3.985383235145282
L 02,577,Drongen,51.047503146402754,3.653586159319735
IC 04-1,727,Lokeren,51.1070280724398,3.985383235145282
L G3,656,Gentbrugge-Perron C.W.,51.029577695344535,3.752448334641758
L C1,4555,Moustier,50.452728270830725,4.693813691441016
IC 04-1,706,Zwijndrecht,51.213640244311954,4.324671903684774
L L1-1,5276,Luik-Sint-Lambertus,50.64694935205776,5.57261263700804
L C2-2,4376,Courcelles-Motte,50.46202986102244,4.400412086453594
IC 01,527,Maria-Aalter,51.10757473497731,3.386700586663826
L B8-4,6556,Brussel-Kapellekerk,50.841176483587425,4.347842850133666
IC 23-2,2826,Duinbergen,51.338271911609404,3.26293506332294
IC 20,2205,Brussel-Centraal,50.84531101978561,4.35675831766839
L 27,2777,Temse,51.12598622728998,4.221148549457797
IC 06-2,3727,Brussel-Kapellekerk,50.841176483587425,4.347842850133666
IC 06-1,1928,Diegem,50.89062008445345,4.441952580833079
IC 11,3406,Familleureux,50.519411502375476,4.211654529557394
IC 10,4327,Balen-Werkplaatsen,51.204947001662255,5.245949995002284
L B10-1,2055,Erembodegem,50.91929248249657,4.055478044299816
IC 31,3106,Linkebeek,50.77339212483393,4.339918296891916
IC 22,3306,Eppegem,50.95840721352074,4.457499467095007
L B2-2,3756,Ruisbroek,50.79177235834205,4.295521156543186
L B19,4005,Bordet,50.8777742574513,4.410014404476271
L B1-1,1776,Brussel-Centraal,50.84531101978561,4.35675831766839
IC 09,2906,Melkouwen,51.095163902445975,4.67120807182244
L B1-1,1777,Antwerpen-Berchem,51.1988702961587,4.432979473543215
L B19,4006,Nijvel,50.6004932591792,4.335288481441468
IC 06-1,1906,Havinnes,50.61882981688033,3.49566068071467
L 01,4977,Statte,50.528178167667285,5.21961650061351
L B6,1577,Eichem,50.82390795063365,3.993605086038247
IC 22,3306,Weerde,50.977243209834526,4.471087335301695
IC 22,3327,Hove,51.15406191789155,4.465214254147384
IC 31,3106,Ukkel-Kalevoet,50.79221449555428,4.331745965347926
L B19,4027,Waterloo,50.715533973277154,4.383453531843166
IC 06-2,3706,Hennuyères-Garage,50.6479509231809,4.173327027471045
IC 17,2527,Rhisnes-Sas,50.50059749700802,4.799814589897698
IC 01,528,Brussel-Noord,50.85959959838314,4.361252318634824
IC 01,529,Chaudfontaine,50.58695623775602,5.644168864995391
IC 17,2527,Rhisnes,50.4993004915618,4.801803854068583
IC 06-1,1905,Brussel-Zuid,50.83580082886068,4.336052466325346
IC 17,2526,Brussel-Congres,50.85178018311057,4.362219760072247
IC 32,827,Izegem,50.92110934791895,3.21346951707641
IC 06-2,3706,Hennuyères,50.65091444999998,4.176132141679284
L B1-1,1776,Brussel-Kapellekerk,50.841176483587425,4.347842850133666
L G3,656,Gentbrugge,51.03878033373764,3.756083021687756
IC 02,1827,Beervelde,51.087172443782855,3.879980395685934
L B3,2256,Zottegem,50.86909906459784,3.814701035934551
IC 08,2605,Langdorp,51.00246923181287,4.863538493784459
IC 20,2228,Asse,50.90670257176685,4.208230395126666
IC 20,2227,Aalst,50.94312325212488,4.038683507111515
IC 25,3804,Statte,50.528178167667285,5.21961650061351
IC 23-1,2304,Hillegem,50.89129484430886,3.857476893082532
IC 08,2606,Mechelen-Nekkerspoel,51.030011706650285,4.490206757525486
IC 23-1,2304,Terhagen,50.90182412616037,3.897482385381147
IC 08,2627,Brussels Airport - Zaventem,50.89642423705851,4.48395784718869
IC 23-1,2304,Herzele,50.89692470109805,3.879519908406242
IC 20,2206,Melle,51.002749921068165,3.796939037051605
IC 20,2205,Brussel-Congres,50.85178018311057,4.362219760072247
IC 11,3406,Marche-lez-Ecaussinnes,50.54620487800974,4.177102420598815
L 23,2856,Antwerpen-Berchem,51.1988702961587,4.432979473543215
L B2-2,3777,Brussel-Noord,50.85959959838314,4.361252318634824
IC 25,3806,Harchies,50.48205917063363,3.699302076649094
L B3,2277,Ede,50.91099162785289,3.987780754836433
IC 23-2,2805,Brussel-Noord,50.85959959838314,4.361252318634824
IC 23-1,2329,Liedekerke,50.882547620740944,4.095286581223728
L B8-4,6577,Brussel-Luxemburg,50.8388378181944,4.373972450132626
IC 29,3606,De Panne,51.07726613110537,2.602401090227277
IC 30,4206,Lier,51.13604368651541,4.561775772658214
IC 29,3630,Tienen,50.8079314339937,4.925636678946889
IC 25,3829,Engis,50.58266006063994,5.402218863560586
IC 31,3126,Marchienne-au-Pont,50.41221701003429,4.394312434115766
IC 09,2928,Tongeren,50.78417812241077,5.473981817007522
IC 31,3106,Ukkel-Stalle,50.80248548912509,4.323778171903269
L B19,4006,Baulers,50.61231055874444,4.350260827251606
IC 22,3327,Kontich-Lint,51.13368368793974,4.47689680687504
L B19,4005,Haren,50.888870897054744,4.420030838936388
L B19,4028,Herent,50.90358929255643,4.672141055672479
L 10-2,956,Poix-Saint-Hubert,50.019463437274744,5.292645675853187
IC 04-1,727,Lokeren-Oost,51.10977280180321,3.991494840923161
L 28,877,Kwatrecht,50.99155010054474,3.833335262496046
L B8-4,6556,Brussel-Centraal,50.84531101978561,4.35675831766839
IC 01,527,Beernem,51.127984351343564,3.329867037752411
L B19,4028,Veltem,50.90055001720875,4.633517445095211
L C1,4555,Franière,50.439609337705065,4.733609958418976
IC 04-1,706,Melsele,51.21082656268172,4.288506223071698
IC 11,3427,Hennuyères,50.65091444999998,4.176132141679284
IC 06-1,1928,Haren-Zuid,50.889616892134654,4.415076991166356
IC 25,3806,Ville-Pommeroeul,50.464526837178994,3.724432978367793
IC 25,3828,Tamines,50.432082424904884,4.60886693717308
IC 03,1527,Brugge,51.19727306937378,3.216852878213191
IC 11,3427,Hennuyères-Garage,50.6479509231809,4.173327027471045
IC 23-1,2304,Burst,50.90690477967195,3.920956497963406
L C1,4578,Namen,50.46920536707373,4.862754782172303
L 02,556,Aalter,51.09225779139449,3.447855382940146
IC 02,1806,Gent-Sint-Pieters,51.03551971701421,3.710101315832923
IC 17,2526,Brussel-Centraal,50.84531101978561,4.35675831766839
IC 17,2506,Mont-Saint-Guibert,50.63829834924627,4.61270934638381
IC 06-2,3706,Tubeke,50.69169220545364,4.20581147629095
IC 04-1,705,Waregem,50.89242835003542,3.42559831780833
L 29,4856,Rebaix,50.66104886044587,3.793534075384883
L 01,4956,Sclaigneaux,50.49212088315084,5.026460713868468
IC 06-1,1905,Brussel-Kapellekerk,50.841176483587425,4.347842850133666
IC 17,2527,Saint-Denis-Bovesse,50.521297001857974,4.767791995102788
IC 29,3629,Anderlecht,50.817918890620895,4.29153935389493
IC 01,529,Chênée,50.60835327318151,5.614856781125281
L B20-1,3056,Oud-Heverlee,50.835700608309,4.653595847154261
L B1-2,1976,Lillois,50.64367353246769,4.363394702678375
L 11,6077,Lustin,50.36974157323638,4.87748847850772
IC 29,3628,Gent-Sint-Pieters,51.03551971701421,3.710101315832923
IC 01,528,Brussel-Congres,50.85178018311057,4.362219760072247
IC 22,3327,Duffel,51.091684329214274,4.492767295335319
L B1-1,1777,Mortsel-Deurnesteenweg,51.18231715581698,4.447187644772542
L B1-1,1756,Sint-Katelijne-Waver,51.07092770112268,4.495807348133646
IC 25,3827,Jemappes,50.45256323711496,3.885169785310784
IC 31,3106,Vorst-Oost,50.81020033751361,4.320981153478699
L B2-2,3756,Vorst-Zuid,50.810073408172734,4.310347515402428
IC 06-2,3706,Lembeek,50.71511214097718,4.221567770089727
IC 25,3829,Hermalle-sous-Huy,50.57190883954576,5.379497993919575
IC 22,3327,Sint-Katelijne-Waver,51.07092770112268,4.495807348133646
IC 01,529,Angleur,50.61253000192086,5.600948994820556
IC 09,2905,Diepenbeek,50.9117654559103,5.41632753993968
L 04,4677,Bergen,50.454436770348934,3.942380575452241
IC 17,2526,Brussel-Kapellekerk,50.841176483587425,4.347842850133666
L 01,4977,Bas-Oha,50.52248172084146,5.191103060084089
IC 29,3604,Denderleeuw,50.891621170603955,4.071431566061722
IC 17,2527,Beuzet,50.532974982431014,4.750194075854363
L B8-2,5656,Ottignies,50.671773574303224,4.570373990520092
L 02,577,Landegem,51.06421597718289,3.57704576219589
L B8-4,6556,Brussel-Congres,50.85178018311057,4.362219760072247
L 28,877,Melle,51.002749921068165,3.796939037051605
L 13-2,5977,Bertrix,49.85232574338336,5.268150158432898
IC 04-1,727,Sinaai,51.143500701126385,4.068856389093756
IC 04-1,706,Beveren(Waas),51.208473876872844,4.260777895162216
IC 25,3804,Hoei,50.527376421412576,5.234037173214917
IC 03,1529,Landen,50.7478945465236,5.079627434738533
L B2-2,3777,Brussel-Congres,50.85178018311057,4.362219760072247
L 24,4127,Leuven,50.88136571115078,4.716208512981546
IC 06-1,1927,Aat,50.627030183302196,3.776393685659921
IC 25,3805,Charleroi-Centraal,50.40419960613283,4.438439317373349
IC 20,2206,Kwatrecht,50.99155010054474,3.833335262496046
IC 20,2228,Zellik,50.889543320907,4.275293625047353
IC 08,2628,Diest,50.99342002336958,5.050066472491223
L 23,2856,Mortsel,51.18289070974223,4.448811507867791
IC 11,3406,Ecaussinnes,50.56236360511417,4.156673065283353
L B10-1,2077,Brussel-Noord,50.85959959838314,4.361252318634824
IC 10,4306,Geel,51.169052549858385,4.989631494192635
IC 25,3828,Aiseau,50.42954055375694,4.584376485514419
IC 23-2,2805,Schaarbeek,50.87869266989909,4.378431524039678
IC 06-1,1928,Schaarbeek,50.87869266989909,4.378431524039678
L 27,2777,Bornem,51.09898501545822,4.240696490818711
L B3,2256,Hillegem,50.89129484430886,3.857476893082532
IC 31,3127,Brussel-Noord,50.85959959838314,4.361252318634824
L B6,1577,Ninove,50.83945938950777,4.026263271536687
L B8-4,6577,Brussel-Schuman,50.842848617923735,4.380023585783107
IC 25,3829,Haute-Flône,50.55424859743379,5.331294580631765
IC 17,2527,Lonzée,50.55197706629923,4.720151428541858
L B1-1,1777,Mortsel-Oude God,51.171808099384776,4.455388660748518
IC 09,2927,Aarschot,50.98449635540834,4.823698347886938
IC 09,2906,Heist-op-den-Berg,51.073554825164585,4.709356990822297
IC 17,2506,Blanmont,50.6195230216506,4.636686921998361
L 28,877,Merelbeke,51.020057593681734,3.764835020911601
IC 04-1,727,Belsele,51.15105293420193,4.088971325808107
IC 01,504,Ans,50.66119033371017,5.509696653841267
L B19,4028,Erps-Kwerps,50.89654505809275,4.584930600736926
L G3,656,Gent-Dampoort,51.056728987048956,3.740515250330524
L B19,4028,Kortenberg,50.89300415046401,4.543312926825426
IC 01,527,Oostkamp,51.15421490987769,3.257626153621203
L 10-2,956,Hatrival,49.98992354993526,5.320445814528347
L 10-2,977,Libramont,49.920246581133696,5.378998507038368
IC 01,505,Brussel-Zuid,50.83580082886068,4.336052466325346
L G3,677,Beervelde,51.087172443782855,3.879980395685934
IC 03,1527,Brugge-Sint-Pieters,51.22266043095538,3.201678747582974
IC 20,2227,Lede,50.970970941375874,3.985076835022102
L B6,1556,Denderleeuw,50.891621170603955,4.071431566061722
IC 25,3828,Farciennes,50.42914428371283,4.552667151670986
IC 23-1,2304,Ede,50.91099162785289,3.987780754836433
IC 25,3805,Couillet,50.39264488205441,4.46933253671293
IC 08,2606,Mechelen,51.01761866620954,4.483579828080118
IC 20,2205,Brussel-Noord,50.85959959838314,4.361252318634824
L B2-2,3777,Brussel-Centraal,50.84531101978561,4.35675831766839
IC 08,2605,Testelt,51.009863921942355,4.945833786595188
IC 06-2,3727,Brussel-Zuid,50.83580082886068,4.336052466325346
L 02,556,Bellem,51.08372389725801,3.487287359353551
IC 01,528,Brussel-Centraal,50.84531101978561,4.35675831766839
IC 29,3606,Koksijde,51.078708344787216,2.654140285486822
L 23,2877,Lier,51.13604368651541,4.561775772658214
IC 25,3829,Amay,50.54592191603607,5.320609487870715
IC 06-2,3706,Halle,50.733060256649814,4.239823954453461
IC 25,3827,Quaregnon,50.449728268340586,3.855599112085348
IC 06-1,1905,Brussel-Centraal,50.84531101978561,4.35675831766839
IC 30,4206,Boechout,51.16382800159388,4.49404699525959
IC 03,1504,Tienen,50.8079314339937,4.925636678946889
IC 17,2506,Chastre,50.60757597085545,4.65013041163728
L B1-1,1756,Duffel,51.091684329214274,4.492767295335319
L B6,1577,Ninove-Wijkspoor,50.840910449255475,4.03458402182942
L B19,4028,Kortenberg-Goederen,50.893766016593474,4.552069735832903
IC 04-1,706,Nieuwkerken-Waas,51.18508212954049,4.184439116403614
L B19,4028,Nossegem,50.88344233385105,4.506060556822931
L 02,577,Hansbeke,51.07270818510425,3.537446874067181
L C1,4555,Floreffe,50.44348110262792,4.762999763962485
L B20-1,3077,Leuven,50.88136571115078,4.716208512981546
L B1-2,1976,Baulers,50.61231055874444,4.350260827251606
L B10-1,2056,Brussel-Zuid,50.83580082886068,4.336052466325346
IC 06-1,1906,Leuze,50.60055276661659,3.616784177194411
L 01,4977,Java,50.51387710977643,5.160698724076279
L 28,856,Gent-Sint-Pieters,51.03551971701421,3.710101315832923
IC 31,3127,Brussel-Congres,50.85178018311057,4.362219760072247
IC 02,1806,Gentbrugge-Perron C.W.,51.029577695344535,3.752448334641758
L 01,4956,Château-de-Seilles,50.497212725023616,5.081752631616731
IC 17,2506,Ernage,50.592425164448926,4.667147778258966
IC 23-1,2328,Kortrijk,50.82441338246862,3.267774528680328
L B19,4027,Eigenbrakel,50.68475914261351,4.37582344502392
IC 32,827,Roeselare,50.94934123119796,3.13023603832593
IC 25,3829,Ampsin,50.53917375822986,5.288862316887595
IC 25,3804,Ampsin,50.53917375822986,5.288862316887595
L B10-1,2077,Brussel-Congres,50.85178018311057,4.362219760072247
L B2-2,3777,Brussel-Kapellekerk,50.841176483587425,4.347842850133666
L C1,4578,Ronet,50.457655320725806,4.828601683088753
IC 23-2,2828,Brussels Airport - Zaventem,50.89642423705851,4.48395784718869
IC 25,3828,Le Campinaire,50.423793968306505,4.542815083314184
L B3,2277,Burst,50.90690477967195,3.920956497963406
IC 20,2227,Serskamp,50.98453800875389,3.959538984169734
IC 03,1529,Neerwinden,50.76376087904074,5.036335028170957
L B3,2256,Herzele,50.89692470109805,3.879519908406242
IC 23-1,2304,Haaltert,50.907066641303196,4.021716617534101
IC 20,2206,Wetteren,51.00149929084834,3.881915592818523
IC 25,3806,Saint-Ghislain,50.44273476444009,3.820015769849533
L B8-4,6556,Brussel-Noord,50.85959959838314,4.361252318634824
IC 01,505,Brussel-Kapellekerk,50.841176483587425,4.347842850133666
IC 04-1,706,Sint-Niklaas-Oost,51.176623377622434,4.159519894481113
L B8-2,5677,Louvain-la-Neuve,50.669942365664625,4.616284940483432
IC 04-1,728,Kortrijk,50.82441338246862,3.267774528680328
L B19,4006,Lillois,50.64367353246769,4.363394702678375
IC 29,3630,Vertrijk,50.83594652922674,4.836594370794067
IC 01,528,Brussel-Kapellekerk,50.841176483587425,4.347842850133666
IC 02,1806,Gentbrugge,51.03878033373764,3.756083021687756
IC 29,3604,Liedekerke,50.882547620740944,4.095286581223728
L B1-1,1777,Hove,51.15406191789155,4.465214254147384
IC 04-1,705,Harelbeke,50.85629094542211,3.314655510959286
IC 10,4327,Mol,51.19069542549062,5.114991873356337
IC 22,3327,Mechelen-Nekkerspoel,51.030011706650285,4.490206757525486
L B20-1,3056,Heverlee,50.86227660767446,4.69446096328772
IC 06-1,1905,Brussel-Congres,50.85178018311057,4.362219760072247
L B6,1577,Okegem,50.85712457162398,4.054122152641436
IC 30,4206,Mortsel,51.18289070974223,4.448811507867791
IC 31,3106,Brussel-Zuid,50.83580082886068,4.336052466325346
L B10-1,2056,Brussel-Kapellekerk,50.841176483587425,4.347842850133666
IC 09,2905,Bilzen-Wijkspoor,50.87164775246125,5.509354730128338
IC 09,2906,Booischot,51.037499464688636,4.772796366390144
IC 22,3306,Mechelen,51.01761866620954,4.483579828080118
IC 23-1,2329,Denderleeuw,50.891621170603955,4.071431566061722
IC 03,1529,Ezemaal,50.77212949781888,4.994219913271197
IC 25,3804,Haute-Flône,50.55424859743379,5.331294580631765
IC 25,3804,Amay,50.54592191603607,5.320609487870715
L B3,2277,Terhagen,50.90182412616037,3.897482385381147
IC 20,2228,Jette,50.88120457651592,4.332923410788644
L B6,1556,Iddergem,50.876839948861615,4.068558143547746
IC 02,1827,Gent-Dampoort,51.056728987048956,3.740515250330524
IC 01,506,Brugge,51.19727306937378,3.216852878213191
